[{"DBA":"AUJLA'S INDIAN COFFEE HOUSE","Address":"56 Hester St, New York, NY 10002","Class":"A","Latitude":"40.71573885","Longitude":"-73.99081476","RecOpenYear":"2021","Seq":"1","img1":"https:\/\/raw.githubusercontent.com\/hsianghsi\/images\/main\/dimes360\/dimes360_AUJLA.jpg","img2":"https:\/\/raw.githubusercontent.com\/hsianghsi\/images\/main\/dimes360_full\/IMG_20231228_155529_872.jpg","OwnerNumber":"Owner1","OwnerName":"Aaron Aujla","OwnerList":["Aaron Aujla","Emily Adams Bode"]},{"DBA":"The River","Address":"102 Bayard St, New York, NY 10013","Class":"C","Latitude":"40.7161999","Longitude":"-73.99969235","RecOpenYear":"2022","Seq":"1","img1":"https:\/\/raw.githubusercontent.com\/hsianghsi\/images\/main\/dimes360\/dimes360_The_River_3.jpg","img2":"https:\/\/raw.githubusercontent.com\/hsianghsi\/images\/main\/dimes360_full\/IMG_20231228_154108_408.jpg","OwnerNumber":"Owner1","OwnerName":"Aaron Aujla","OwnerList":["Aaron Aujla","Benjamin Bloomstein","Emily Adams Bode","David Komurek","Yudai Kanayama","Keisuke Kasagi"]},{"DBA":"Forgtmenot","Address":"138 Division St, New York, NY 10002","Class":"A","Latitude":"40.7145711","Longitude":"-73.9915376","RecOpenYear":"2012","Seq":"1","img1":"https:\/\/raw.githubusercontent.com\/hsianghsi\/images\/main\/dimes360\/dimes360_FMN_3.jpg","img2":"https:\/\/raw.githubusercontent.com\/hsianghsi\/images\/main\/dimes360_full\/IMG_20231228_155125_120.jpg","OwnerNumber":"Owner2","OwnerName":"Abigail Sierros","OwnerList":["Pavlos Sierros","Abigail Sierros"]},{"DBA":"Mr. Fong's","Address":"40 Market St, New York, NY 10002","Class":"B","Latitude":"40.7124273","Longitude":"-73.9942509","RecOpenYear":"2015","Seq":"1","img1":"https:\/\/raw.githubusercontent.com\/hsianghsi\/images\/main\/dimes360\/dimes360_Mr_Fongs_1.jpg","img2":"https:\/\/raw.githubusercontent.com\/hsianghsi\/images\/main\/dimes360_full\/IMG_20231227_224911_900.jpg","OwnerNumber":"Owner2","OwnerName":"Adam Moonves","OwnerList":["Aisa Shelley","Adam Moonves","Noah Shelley","Lucas Moran","Jordan Hadley","Daniel Gold","Blue Keilin LLC"]},{"DBA":"Primo's","Address":"95 W Broadway, New York, NY 10007","Class":"C","Latitude":"40.7153573","Longitude":"-74.0092393","RecOpenYear":"2018","Seq":"1","img1":"","img2":"","OwnerNumber":"Owner2","OwnerName":"Adam Moonves","OwnerList":["Aisa Shelley","Adam Moonves","Mario Agrario","Victor Assaf","Gerald Barad","Mohammed Diab","Cindy Barad Elias","Fabio Pasquale Granato","Teufik Radoncic","Allan Wartski","Jay Wartski","Jerry Wartski","Tribeca Hotel LLC","Keren Holdings LLC"]},{"DBA":"Bacaro","Address":"136 Division St, New York, NY 10002","Class":"A","Latitude":"40.7145454","Longitude":"-73.9914975","RecOpenYear":"2007","Seq":"1","img1":"","img2":"","OwnerNumber":"Owner2","OwnerName":"Adam Shepard","OwnerList":["Kama Geary","Adam Shepard"]},{"DBA":"Le Crocodile","Address":"80 Wythe Avenue, Brooklyn, New York 11211 ","Class":"C","Latitude":"40.7219036","Longitude":"-73.9580608","RecOpenYear":"2020","Seq":"1","img1":"https:\/\/raw.githubusercontent.com\/hsianghsi\/images\/main\/dimes360\/dimes360_le_crocodile_1.jpg","img2":"https:\/\/raw.githubusercontent.com\/hsianghsi\/images\/main\/dimes360_full\/IMG_20231228_162110_507.jpg","OwnerNumber":"Owner4","OwnerName":"Aidan O'Neal","OwnerList":["Jon Neidich","John Dantzler","Joe Correia","Aidan O'Neal","Jake Leiber"]},{"DBA":"Bar Blondeau","Address":"80 Wythe Avenue, Brooklyn, New York 11211 ","Class":"C","Latitude":"40.7219036","Longitude":"-73.9580608","RecOpenYear":"2021","Seq":"1","img1":"https:\/\/raw.githubusercontent.com\/hsianghsi\/images\/main\/dimes360\/dimes360_bar_blondeau_4.jpg","img2":"https:\/\/raw.githubusercontent.com\/hsianghsi\/images\/main\/dimes360_full\/IMG_20231227_220457_268.jpg","OwnerNumber":"Owner2","OwnerName":"Aidan O'Neal","OwnerList":["Jon Neidich","Aidan O'Neal","Jake Leiber"]},{"DBA":"Mr. Fong's","Address":"40 Market St, New York, NY 10002","Class":"B","Latitude":"40.7124273","Longitude":"-73.9942509","RecOpenYear":"2015","Seq":"1","img1":"https:\/\/raw.githubusercontent.com\/hsianghsi\/images\/main\/dimes360\/dimes360_Mr_Fongs_1.jpg","img2":"https:\/\/raw.githubusercontent.com\/hsianghsi\/images\/main\/dimes360_full\/IMG_20231227_224911_900.jpg","OwnerNumber":"Owner1","OwnerName":"Aisa Shelley","OwnerList":["Aisa Shelley","Adam Moonves","Noah Shelley","Lucas Moran","Jordan Hadley","Daniel Gold","Blue Keilin LLC"]},{"DBA":"Regina's Grocery","Address":"27 Orchard St, New York, NY 10002","Class":"A","Latitude":"40.71547867","Longitude":"-73.9916956","RecOpenYear":"2017","Seq":"1","img1":"https:\/\/raw.githubusercontent.com\/hsianghsi\/images\/main\/dimes360\/dimes360_reginas_1.jpg","img2":"https:\/\/raw.githubusercontent.com\/hsianghsi\/images\/main\/dimes360_full\/IMG_20231227_221412_156.jpg","OwnerNumber":"Owner1","OwnerName":"Aisa Shelley","OwnerList":["Aisa Shelley","Roman Grandinetti"]},{"DBA":"Primo's","Address":"95 W Broadway, New York, NY 10007","Class":"C","Latitude":"40.7153573","Longitude":"-74.0092393","RecOpenYear":"2018","Seq":"1","img1":"","img2":"","OwnerNumber":"Owner1","OwnerName":"Aisa Shelley","OwnerList":["Aisa Shelley","Adam Moonves","Mario Agrario","Victor Assaf","Gerald Barad","Mohammed Diab","Cindy Barad Elias","Fabio Pasquale Granato","Teufik Radoncic","Allan Wartski","Jay Wartski","Jerry Wartski","Tribeca Hotel LLC","Keren Holdings LLC"]},{"DBA":"Casino","Address":"171 E Broadway, New York, NY 10002","Class":"A","Latitude":"40.7139367","Longitude":"-73.9896705","RecOpenYear":"2022","Seq":"2","img1":"https:\/\/raw.githubusercontent.com\/hsianghsi\/images\/main\/dimes360\/dimes360_Casino_1.jpg","img2":"https:\/\/raw.githubusercontent.com\/hsianghsi\/images\/main\/dimes360_full\/IMG_20231228_155336_742.jpg","OwnerNumber":"Owner1","OwnerName":"Aisa Shelley","OwnerList":["Aisa Shelley","Roman Grandinetti"]},{"DBA":"Casetta","Address":"61 Hester St, New York, NY 10002","Class":"A","Latitude":"40.71582113","Longitude":"-73.99035081","RecOpenYear":"2023","Seq":"1","img1":"https:\/\/raw.githubusercontent.com\/hsianghsi\/images\/main\/dimes360\/dimes360_Casetta_4.jpg","img2":"https:\/\/raw.githubusercontent.com\/hsianghsi\/images\/main\/dimes360_full\/IMG_20231228_160831_660.jpg","OwnerNumber":"Owner1","OwnerName":"Aisa Shelley","OwnerList":["Aisa Shelley"]},{"DBA":"Ferry Boat Inn","Address":"Helford Passage, Falmouth TR11 5LB, United Kingdom","Class":"D","Latitude":"50.10042068","Longitude":"-5.1287846","RecOpenYear":"2017","Seq":"1","img1":"","img2":"","OwnerNumber":"Owner3","OwnerName":"Alex Towill","OwnerList":["Benjamin Towill","Kate Towill","Alex Towill","Sarah Towill"]},{"DBA":"Metrograph Commissary","Address":"7 Ludlow St, New York, NY 10002","Class":"A","Latitude":"40.7150926","Longitude":"-73.9911357","RecOpenYear":"2016","Seq":"1","img1":"https:\/\/raw.githubusercontent.com\/hsianghsi\/images\/main\/dimes360\/dimes360_Metrograph_2.jpg","img2":"https:\/\/raw.githubusercontent.com\/hsianghsi\/images\/main\/dimes360_full\/IMG_20231228_155234_418.jpg","OwnerNumber":"Owner1","OwnerName":"Alexander Olch","OwnerList":["Alexander Olch","Matthew Holt","Ethan Oberman","Jacob Perlin","Samizdat Holdings LLC"]},{"DBA":"Carlota","Address":"14A Orchard St, New York, NY 10002","Class":"A","Latitude":"40.715019","Longitude":"-73.991687","RecOpenYear":"2023","Seq":"1","img1":"","img2":"","OwnerNumber":"Owner3","OwnerName":"Alfredo Avilla","OwnerList":["Tommy Mendes","Mauricio Melo","Alfredo Avilla"]},{"DBA":"Dimes","Address":"49 Canal St, New York, NY 10002","Class":"A","Latitude":"40.7149354","Longitude":"-73.9915654","RecOpenYear":"2015","Seq":"1","img1":"https:\/\/raw.githubusercontent.com\/hsianghsi\/images\/main\/dimes360\/dimes360_dimes_1.jpg","img2":"https:\/\/raw.githubusercontent.com\/hsianghsi\/images\/main\/dimes360_full\/IMG_20231228_161442_057.jpg","OwnerNumber":"Owner2","OwnerName":"Alissa Wagner","OwnerList":["Sabrina De Sousa","Alissa Wagner","Caroline Mascolo"]},{"DBA":"Dimes Deli","Address":"143 Division St, New York, NY 10002","Class":"A","Latitude":"40.714439","Longitude":"-73.9908127","RecOpenYear":"2015","Seq":"2","img1":"https:\/\/raw.githubusercontent.com\/hsianghsi\/images\/main\/dimes360\/dimes360_Dimes_Deli_2.jpg","img2":"https:\/\/raw.githubusercontent.com\/hsianghsi\/images\/main\/dimes360_full\/IMG_20231227_223937_502.jpg","OwnerNumber":"Owner2","OwnerName":"Alissa Wagner","OwnerList":["Sabrina De Sousa","Alissa Wagner","Caroline Mascolo"]},{"DBA":"Primo's","Address":"95 W Broadway, New York, NY 10007","Class":"C","Latitude":"40.7153573","Longitude":"-74.0092393","RecOpenYear":"2018","Seq":"1","img1":"","img2":"","OwnerNumber":"Owner10","OwnerName":"Allan Wartski","OwnerList":["Aisa Shelley","Adam Moonves","Mario Agrario","Victor Assaf","Gerald Barad","Mohammed Diab","Cindy Barad Elias","Fabio Pasquale Granato","Teufik Radoncic","Allan Wartski","Jay Wartski","Jerry Wartski","Tribeca Hotel LLC","Keren Holdings LLC"]},{"DBA":"Bar Belly","Address":"14 Orchard St, New York, NY 10002","Class":"A","Latitude":"40.71514056","Longitude":"-73.9916666","RecOpenYear":"2013","Seq":"1","img1":"","img2":"","OwnerNumber":"Owner5","OwnerName":"Annabel Bates","OwnerList":["Benjamin Towill","Philip Winser","Tommy Mendes","Mauricio Melo","Annabel Bates","Toby Graham","John Shimkus"]},{"DBA":"Dudley's","Address":"85 Orchard St, New York, NY 10002","Class":"B","Latitude":"40.7180663","Longitude":"-73.99044","RecOpenYear":"2012","Seq":"2","img1":"https:\/\/raw.githubusercontent.com\/hsianghsi\/images\/main\/dimes360\/dimes360_dudleys_3.jpg","img2":"https:\/\/raw.githubusercontent.com\/hsianghsi\/images\/main\/dimes360_full\/IMG_20231227_221908_993.jpg","OwnerNumber":"Owner4","OwnerName":"Benedict Dos Remedios","OwnerList":["Jon Neidich","Nicholas Mathers","Steven Hiroyuki Aoki","Benedict Dos Remedios"]},{"DBA":"The River","Address":"102 Bayard St, New York, NY 10013","Class":"C","Latitude":"40.7161999","Longitude":"-73.99969235","RecOpenYear":"2022","Seq":"1","img1":"https:\/\/raw.githubusercontent.com\/hsianghsi\/images\/main\/dimes360\/dimes360_The_River_3.jpg","img2":"https:\/\/raw.githubusercontent.com\/hsianghsi\/images\/main\/dimes360_full\/IMG_20231228_154108_408.jpg","OwnerNumber":"Owner2","OwnerName":"Benjamin Bloomstein","OwnerList":["Aaron Aujla","Benjamin Bloomstein","Emily Adams Bode","David Komurek","Yudai Kanayama","Keisuke Kasagi"]},{"DBA":"Bar Belly","Address":"14 Orchard St, New York, NY 10002","Class":"A","Latitude":"40.71514056","Longitude":"-73.9916666","RecOpenYear":"2013","Seq":"1","img1":"","img2":"","OwnerNumber":"Owner1","OwnerName":"Benjamin Towill","OwnerList":["Benjamin Towill","Philip Winser","Tommy Mendes","Mauricio Melo","Annabel Bates","Toby Graham","John Shimkus"]},{"DBA":"Ferry Boat Inn","Address":"Helford Passage, Falmouth TR11 5LB, United Kingdom","Class":"D","Latitude":"50.10042068","Longitude":"-5.1287846","RecOpenYear":"2017","Seq":"1","img1":"","img2":"","OwnerNumber":"Owner1","OwnerName":"Benjamin Towill","OwnerList":["Benjamin Towill","Kate Towill","Alex Towill","Sarah Towill"]},{"DBA":"Basic Kitchen","Address":"82 Wentworth St, Charleston, SC 29401","Class":"D","Latitude":"32.782103","Longitude":"-79.935045","RecOpenYear":"2017","Seq":"2","img1":"","img2":"","OwnerNumber":"Owner1","OwnerName":"Benjamin Towill","OwnerList":["Benjamin Towill","Kate Towill"]},{"DBA":"Post House","Address":"101 Pitt St, Mt Pleasant, SC 29464, United States","Class":"D","Latitude":"32.786801","Longitude":"-79.876403","RecOpenYear":"2020","Seq":"1","img1":"","img2":"","OwnerNumber":"Owner1","OwnerName":"Benjamin Towill","OwnerList":["Benjamin Towill","Kate Towill"]},{"DBA":"Mr. Fong's","Address":"40 Market St, New York, NY 10002","Class":"B","Latitude":"40.7124273","Longitude":"-73.9942509","RecOpenYear":"2015","Seq":"1","img1":"https:\/\/raw.githubusercontent.com\/hsianghsi\/images\/main\/dimes360\/dimes360_Mr_Fongs_1.jpg","img2":"https:\/\/raw.githubusercontent.com\/hsianghsi\/images\/main\/dimes360_full\/IMG_20231227_224911_900.jpg","OwnerNumber":"Owner7","OwnerName":"Blue Keilin LLC","OwnerList":["Aisa Shelley","Adam Moonves","Noah Shelley","Lucas Moran","Jordan Hadley","Daniel Gold","Blue Keilin LLC"]},{"DBA":"Dimes","Address":"49 Canal St, New York, NY 10002","Class":"A","Latitude":"40.7149354","Longitude":"-73.9915654","RecOpenYear":"2015","Seq":"1","img1":"https:\/\/raw.githubusercontent.com\/hsianghsi\/images\/main\/dimes360\/dimes360_dimes_1.jpg","img2":"https:\/\/raw.githubusercontent.com\/hsianghsi\/images\/main\/dimes360_full\/IMG_20231228_161442_057.jpg","OwnerNumber":"Owner3","OwnerName":"Caroline Mascolo","OwnerList":["Sabrina De Sousa","Alissa Wagner","Caroline Mascolo"]},{"DBA":"Dimes Deli","Address":"143 Division St, New York, NY 10002","Class":"A","Latitude":"40.714439","Longitude":"-73.9908127","RecOpenYear":"2015","Seq":"2","img1":"https:\/\/raw.githubusercontent.com\/hsianghsi\/images\/main\/dimes360\/dimes360_Dimes_Deli_2.jpg","img2":"https:\/\/raw.githubusercontent.com\/hsianghsi\/images\/main\/dimes360_full\/IMG_20231227_223937_502.jpg","OwnerNumber":"Owner3","OwnerName":"Caroline Mascolo","OwnerList":["Sabrina De Sousa","Alissa Wagner","Caroline Mascolo"]},{"DBA":"169 Bar","Address":"169 E Broadway, New York, NY 10002","Class":"A","Latitude":"40.7139326","Longitude":"-73.9897603","RecOpenYear":"2006","Seq":"1","img1":"","img2":"","OwnerNumber":"Owner1","OwnerName":"Charles Hanson","OwnerList":["Charles Hanson"]},{"DBA":"Treasure Club","Address":"22 Orchard St, New York, NY 10002","Class":"A","Latitude":"40.7153775","Longitude":"-73.9915426","RecOpenYear":"2022","Seq":"1","img1":"","img2":"","OwnerNumber":"Owner2","OwnerName":"Christopher Yerington","OwnerList":["Johnny Yerington","Christopher Yerington"]},{"DBA":"Primo's","Address":"95 W Broadway, New York, NY 10007","Class":"C","Latitude":"40.7153573","Longitude":"-74.0092393","RecOpenYear":"2018","Seq":"1","img1":"","img2":"","OwnerNumber":"Owner7","OwnerName":"Cindy Barad Elias","OwnerList":["Aisa Shelley","Adam Moonves","Mario Agrario","Victor Assaf","Gerald Barad","Mohammed Diab","Cindy Barad Elias","Fabio Pasquale Granato","Teufik Radoncic","Allan Wartski","Jay Wartski","Jerry Wartski","Tribeca Hotel LLC","Keren Holdings LLC"]},{"DBA":"Mr. Fong's","Address":"40 Market St, New York, NY 10002","Class":"B","Latitude":"40.7124273","Longitude":"-73.9942509","RecOpenYear":"2015","Seq":"1","img1":"https:\/\/raw.githubusercontent.com\/hsianghsi\/images\/main\/dimes360\/dimes360_Mr_Fongs_1.jpg","img2":"https:\/\/raw.githubusercontent.com\/hsianghsi\/images\/main\/dimes360_full\/IMG_20231227_224911_900.jpg","OwnerNumber":"Owner6","OwnerName":"Daniel Gold","OwnerList":["Aisa Shelley","Adam Moonves","Noah Shelley","Lucas Moran","Jordan Hadley","Daniel Gold","Blue Keilin LLC"]},{"DBA":"Maiden Lane","Address":"162 Avenue B, New York, NY 10009","Class":"C","Latitude":"40.7271258","Longitude":"-73.9798625","RecOpenYear":"2013","Seq":"1","img1":"","img2":"","OwnerNumber":"Owner3","OwnerName":"David Drinkwater","OwnerList":["Nialls Fallon","Gareth Maccubbin","David Drinkwater","Schuyler Klaassen","Samuel Chang"]},{"DBA":"Alphabet City Brewing Co.","Address":"96 Loisaida Ave, New York, NY 10009","Class":"C","Latitude":"40.72368258","Longitude":"-73.9789504","RecOpenYear":"2012","Seq":"1","img1":"","img2":"","OwnerNumber":"Owner3","OwnerName":"David Hitchner","OwnerList":["Jeffrey Simon","Jason Yarusi","David Hitchner","Zachary Mack"]},{"DBA":"The River","Address":"102 Bayard St, New York, NY 10013","Class":"C","Latitude":"40.7161999","Longitude":"-73.99969235","RecOpenYear":"2022","Seq":"1","img1":"https:\/\/raw.githubusercontent.com\/hsianghsi\/images\/main\/dimes360\/dimes360_The_River_3.jpg","img2":"https:\/\/raw.githubusercontent.com\/hsianghsi\/images\/main\/dimes360_full\/IMG_20231228_154108_408.jpg","OwnerNumber":"Owner4","OwnerName":"David Komurek","OwnerList":["Aaron Aujla","Benjamin Bloomstein","Emily Adams Bode","David Komurek","Yudai Kanayama","Keisuke Kasagi"]},{"DBA":"Kiki's","Address":"130 Division St, New York, NY 10002","Class":"A","Latitude":"40.7145315","Longitude":"-73.9919097","RecOpenYear":"2015","Seq":"1","img1":"https:\/\/raw.githubusercontent.com\/hsianghsi\/images\/main\/dimes360\/dimes360_Kiki_2.jpg","img2":"https:\/\/raw.githubusercontent.com\/hsianghsi\/images\/main\/dimes360_full\/IMG_20231228_155639_278.jpg","OwnerNumber":"Owner3","OwnerName":"Derek Tighe","OwnerList":["Kiki Karamintzas","Pavlos Sierros","Derek Tighe"]},{"DBA":"Kiki's Grill and Rotisserie","Address":"121 Division St, New York, NY 10002","Class":"A","Latitude":"40.7143643","Longitude":"-73.9918059","RecOpenYear":"2019","Seq":"1","img1":"","img2":"","OwnerNumber":"Owner3","OwnerName":"Derek Tighe","OwnerList":["Kiki Karamintzas","Pavlos Sierros","Derek Tighe"]},{"DBA":"AUJLA'S INDIAN COFFEE HOUSE","Address":"56 Hester St, New York, NY 10002","Class":"A","Latitude":"40.71573885","Longitude":"-73.99081476","RecOpenYear":"2021","Seq":"1","img1":"https:\/\/raw.githubusercontent.com\/hsianghsi\/images\/main\/dimes360\/dimes360_AUJLA.jpg","img2":"https:\/\/raw.githubusercontent.com\/hsianghsi\/images\/main\/dimes360_full\/IMG_20231228_155529_872.jpg","OwnerNumber":"Owner2","OwnerName":"Emily Adams Bode","OwnerList":["Aaron Aujla","Emily Adams Bode"]},{"DBA":"The River","Address":"102 Bayard St, New York, NY 10013","Class":"C","Latitude":"40.7161999","Longitude":"-73.99969235","RecOpenYear":"2022","Seq":"1","img1":"https:\/\/raw.githubusercontent.com\/hsianghsi\/images\/main\/dimes360\/dimes360_The_River_3.jpg","img2":"https:\/\/raw.githubusercontent.com\/hsianghsi\/images\/main\/dimes360_full\/IMG_20231228_154108_408.jpg","OwnerNumber":"Owner3","OwnerName":"Emily Adams Bode","OwnerList":["Aaron Aujla","Benjamin Bloomstein","Emily Adams Bode","David Komurek","Yudai Kanayama","Keisuke Kasagi"]},{"DBA":"Metrograph Commissary","Address":"7 Ludlow St, New York, NY 10002","Class":"A","Latitude":"40.7150926","Longitude":"-73.9911357","RecOpenYear":"2016","Seq":"1","img1":"https:\/\/raw.githubusercontent.com\/hsianghsi\/images\/main\/dimes360\/dimes360_Metrograph_2.jpg","img2":"https:\/\/raw.githubusercontent.com\/hsianghsi\/images\/main\/dimes360_full\/IMG_20231228_155234_418.jpg","OwnerNumber":"Owner3","OwnerName":"Ethan Oberman","OwnerList":["Alexander Olch","Matthew Holt","Ethan Oberman","Jacob Perlin","Samizdat Holdings LLC"]},{"DBA":"Primo's","Address":"95 W Broadway, New York, NY 10007","Class":"C","Latitude":"40.7153573","Longitude":"-74.0092393","RecOpenYear":"2018","Seq":"1","img1":"","img2":"","OwnerNumber":"Owner8","OwnerName":"Fabio Pasquale Granato","OwnerList":["Aisa Shelley","Adam Moonves","Mario Agrario","Victor Assaf","Gerald Barad","Mohammed Diab","Cindy Barad Elias","Fabio Pasquale Granato","Teufik Radoncic","Allan Wartski","Jay Wartski","Jerry Wartski","Tribeca Hotel LLC","Keren Holdings LLC"]},{"DBA":"Clockwork Bar","Address":"21 Essex St, New York, NY 10002","Class":"A","Latitude":"40.7153863","Longitude":"-73.990065","RecOpenYear":"2013","Seq":"1","img1":"","img2":"","OwnerNumber":"Owner1","OwnerName":"Francesco Scotto di Santolo","OwnerList":["Francesco Scotto di Santolo"]},{"DBA":"Strangelove Bar","Address":"229 E 53rd St, New York, NY 10022","Class":"C","Latitude":"40.75738535","Longitude":"-73.96809702","RecOpenYear":"2018","Seq":"1","img1":"","img2":"","OwnerNumber":"Owner1","OwnerName":"Francesco Scotto di Santolo","OwnerList":["Francesco Scotto di Santolo"]},{"DBA":"Parcelle","Address":"135C Division St, New York, NY 10002","Class":"A","Latitude":"40.7143722","Longitude":"-73.9912687","RecOpenYear":"2022","Seq":"1","img1":"https:\/\/raw.githubusercontent.com\/hsianghsi\/images\/main\/dimes360\/dimes360_Parcelle_4.jpg","img2":"https:\/\/raw.githubusercontent.com\/hsianghsi\/images\/main\/dimes360_full\/IMG_20231228_160012_432.jpg","OwnerNumber":"Owner3","OwnerName":"Gabrielle Finley","OwnerList":["Grant Reynolds","Joshua Abramson","Gabrielle Finley"]},{"DBA":"Maiden Lane","Address":"162 Avenue B, New York, NY 10009","Class":"C","Latitude":"40.7271258","Longitude":"-73.9798625","RecOpenYear":"2013","Seq":"1","img1":"","img2":"","OwnerNumber":"Owner2","OwnerName":"Gareth Maccubbin","OwnerList":["Nialls Fallon","Gareth Maccubbin","David Drinkwater","Schuyler Klaassen","Samuel Chang"]},{"DBA":"Primo's","Address":"95 W Broadway, New York, NY 10007","Class":"C","Latitude":"40.7153573","Longitude":"-74.0092393","RecOpenYear":"2018","Seq":"1","img1":"","img2":"","OwnerNumber":"Owner5","OwnerName":"Gerald Barad","OwnerList":["Aisa Shelley","Adam Moonves","Mario Agrario","Victor Assaf","Gerald Barad","Mohammed Diab","Cindy Barad Elias","Fabio Pasquale Granato","Teufik Radoncic","Allan Wartski","Jay Wartski","Jerry Wartski","Tribeca Hotel LLC","Keren Holdings LLC"]},{"DBA":"Parcelle","Address":"135C Division St, New York, NY 10002","Class":"A","Latitude":"40.7143722","Longitude":"-73.9912687","RecOpenYear":"2022","Seq":"1","img1":"https:\/\/raw.githubusercontent.com\/hsianghsi\/images\/main\/dimes360\/dimes360_Parcelle_4.jpg","img2":"https:\/\/raw.githubusercontent.com\/hsianghsi\/images\/main\/dimes360_full\/IMG_20231228_160012_432.jpg","OwnerNumber":"Owner1","OwnerName":"Grant Reynolds","OwnerList":["Grant Reynolds","Joshua Abramson","Gabrielle Finley"]},{"DBA":"Tolo","Address":"28 Canal St, New York, NY 10002","Class":"A","Latitude":"40.7143381","Longitude":"-73.990509","RecOpenYear":"2023","Seq":"1","img1":"","img2":"","OwnerNumber":"Owner1","OwnerName":"Grant Reynolds","OwnerList":["Grant Reynolds","Ron Yan"]},{"DBA":"Manero's","Address":"113 Mulberry St, New York, NY 10013","Class":"C","Latitude":"40.7176091","Longitude":"-73.9984198","RecOpenYear":"2022","Seq":"1","img1":"https:\/\/raw.githubusercontent.com\/hsianghsi\/images\/main\/dimes360\/dimes360_Maneros_1.jpg","img2":"","OwnerNumber":"Owner4","OwnerName":"Hassan Gholizadeh","OwnerList":["Roman Grandinetti","Nima Garos","Koorosh Bakhtiar","Hassan Gholizadeh"]},{"DBA":"Acme Bar & Grill","Address":"9 Great Jones Street, New York, New York 10012","Class":"C","Latitude":"40.7272258","Longitude":"-73.9940546","RecOpenYear":"2012","Seq":"1","img1":"","img2":"","OwnerNumber":"Owner3","OwnerName":"Huy Chi Le","OwnerList":["Jon Neidich","Jean-Marc Houmard","Huy Chi Le"]},{"DBA":"The Nines","Address":"9 Great Jones Street, New York, New York 10012","Class":"C","Latitude":"40.7274955","Longitude":"-73.9938555","RecOpenYear":"2022","Seq":"1","img1":"","img2":"","OwnerNumber":"Owner3","OwnerName":"Huy Chi Le","OwnerList":["Jon Neidich","Jean-Marc Houmard","Huy Chi Le"]},{"DBA":"Estela","Address":"47 E Houston St 1st floor, New York, NY 10012","Class":"C","Latitude":"40.7246739","Longitude":"-73.9947509","RecOpenYear":"2013","Seq":"1","img1":"","img2":"","OwnerNumber":"Owner1","OwnerName":"Ignacio Mattos","OwnerList":["Ignacio Mattos","Mark Connell"]},{"DBA":"Caf\u00e9 Altro Paradiso","Address":"234 Spring St, New York, NY 10013","Class":"C","Latitude":"40.7252617","Longitude":"-74.0036021","RecOpenYear":"2016","Seq":"1","img1":"","img2":"","OwnerNumber":"Owner1","OwnerName":"Ignacio Mattos","OwnerList":["Ignacio Mattos","Thomas Carter"]},{"DBA":"Lodi","Address":"1 Rockefeller Plaza, New York, NY 10020","Class":"C","Latitude":"40.7579519","Longitude":"-73.97894817","RecOpenYear":"2021","Seq":"1","img1":"","img2":"","OwnerNumber":"Owner1","OwnerName":"Ignacio Mattos","OwnerList":["Ignacio Mattos"]},{"DBA":"Corner Bar","Address":"9 Orchard St, New York, NY 10002","Class":"A","Latitude":"40.7149402","Longitude":"-73.992298","RecOpenYear":"2021","Seq":"2","img1":"https:\/\/raw.githubusercontent.com\/hsianghsi\/images\/main\/dimes360\/dimes360_Corner_Bar_1.jpg","img2":"https:\/\/raw.githubusercontent.com\/hsianghsi\/images\/main\/dimes360_full\/IMG_20231228_154807_022.jpg","OwnerNumber":"Owner1","OwnerName":"Ignacio Mattos","OwnerList":["Ignacio Mattos","Neal Peskind","Michael Mullen","Orchard Street Restaurant Management LLC","TOURBILLON9 LLC"]},{"DBA":"Metrograph Commissary","Address":"7 Ludlow St, New York, NY 10002","Class":"A","Latitude":"40.7150926","Longitude":"-73.9911357","RecOpenYear":"2016","Seq":"1","img1":"https:\/\/raw.githubusercontent.com\/hsianghsi\/images\/main\/dimes360\/dimes360_Metrograph_2.jpg","img2":"https:\/\/raw.githubusercontent.com\/hsianghsi\/images\/main\/dimes360_full\/IMG_20231228_155234_418.jpg","OwnerNumber":"Owner4","OwnerName":"Jacob Perlin","OwnerList":["Alexander Olch","Matthew Holt","Ethan Oberman","Jacob Perlin","Samizdat Holdings LLC"]},{"DBA":"Le Crocodile","Address":"80 Wythe Avenue, Brooklyn, New York 11211 ","Class":"C","Latitude":"40.7219036","Longitude":"-73.9580608","RecOpenYear":"2020","Seq":"1","img1":"https:\/\/raw.githubusercontent.com\/hsianghsi\/images\/main\/dimes360\/dimes360_le_crocodile_1.jpg","img2":"https:\/\/raw.githubusercontent.com\/hsianghsi\/images\/main\/dimes360_full\/IMG_20231228_162110_507.jpg","OwnerNumber":"Owner5","OwnerName":"Jake Leiber","OwnerList":["Jon Neidich","John Dantzler","Joe Correia","Aidan O'Neal","Jake Leiber"]},{"DBA":"Bar Blondeau","Address":"80 Wythe Avenue, Brooklyn, New York 11211 ","Class":"C","Latitude":"40.7219036","Longitude":"-73.9580608","RecOpenYear":"2021","Seq":"1","img1":"https:\/\/raw.githubusercontent.com\/hsianghsi\/images\/main\/dimes360\/dimes360_bar_blondeau_4.jpg","img2":"https:\/\/raw.githubusercontent.com\/hsianghsi\/images\/main\/dimes360_full\/IMG_20231227_220457_268.jpg","OwnerNumber":"Owner3","OwnerName":"Jake Leiber","OwnerList":["Jon Neidich","Aidan O'Neal","Jake Leiber"]},{"DBA":"Alphabet City Brewing Co.","Address":"96 Loisaida Ave, New York, NY 10009","Class":"C","Latitude":"40.72368258","Longitude":"-73.9789504","RecOpenYear":"2012","Seq":"1","img1":"","img2":"","OwnerNumber":"Owner2","OwnerName":"Jason Yarusi","OwnerList":["Jeffrey Simon","Jason Yarusi","David Hitchner","Zachary Mack"]},{"DBA":"Primo's","Address":"95 W Broadway, New York, NY 10007","Class":"C","Latitude":"40.7153573","Longitude":"-74.0092393","RecOpenYear":"2018","Seq":"1","img1":"","img2":"","OwnerNumber":"Owner11","OwnerName":"Jay Wartski","OwnerList":["Aisa Shelley","Adam Moonves","Mario Agrario","Victor Assaf","Gerald Barad","Mohammed Diab","Cindy Barad Elias","Fabio Pasquale Granato","Teufik Radoncic","Allan Wartski","Jay Wartski","Jerry Wartski","Tribeca Hotel LLC","Keren Holdings LLC"]},{"DBA":"Acme Bar & Grill","Address":"9 Great Jones Street, New York, New York 10012","Class":"C","Latitude":"40.7272258","Longitude":"-73.9940546","RecOpenYear":"2012","Seq":"1","img1":"","img2":"","OwnerNumber":"Owner2","OwnerName":"Jean-Marc Houmard","OwnerList":["Jon Neidich","Jean-Marc Houmard","Huy Chi Le"]},{"DBA":"The Nines","Address":"9 Great Jones Street, New York, New York 10012","Class":"C","Latitude":"40.7274955","Longitude":"-73.9938555","RecOpenYear":"2022","Seq":"1","img1":"","img2":"","OwnerNumber":"Owner2","OwnerName":"Jean-Marc Houmard","OwnerList":["Jon Neidich","Jean-Marc Houmard","Huy Chi Le"]},{"DBA":"The Orchard Townhouse","Address":"242 10th Ave, New York, NY 10001","Class":"C","Latitude":"40.7483879","Longitude":"-74.003439","RecOpenYear":"2019","Seq":"1","img1":"","img2":"","OwnerNumber":"Owner2","OwnerName":"Jeffrey Bogino","OwnerList":["Philip Winser","Jeffrey Bogino","Natalie Freihon","Michael Navarette","Trevor Stahelski","Michelle Watanabe"]},{"DBA":"Clandestino","Address":"35 Canal St, New York, NY 10002","Class":"A","Latitude":"40.7147395","Longitude":"-73.9908755","RecOpenYear":"2006","Seq":"1","img1":"https:\/\/raw.githubusercontent.com\/hsianghsi\/images\/main\/dimes360\/dimes360_Clandestino_3.jpg","img2":"https:\/\/raw.githubusercontent.com\/hsianghsi\/images\/main\/dimes360_full\/IMG_20231227_224136_692.jpg","OwnerNumber":"Owner1","OwnerName":"Jeffrey Simon","OwnerList":["Jeffrey Simon","Laure Travers"]},{"DBA":"Alphabet City Brewing Co.","Address":"96 Loisaida Ave, New York, NY 10009","Class":"C","Latitude":"40.72368258","Longitude":"-73.9789504","RecOpenYear":"2012","Seq":"1","img1":"","img2":"","OwnerNumber":"Owner1","OwnerName":"Jeffrey Simon","OwnerList":["Jeffrey Simon","Jason Yarusi","David Hitchner","Zachary Mack"]},{"DBA":"Little Canal","Address":"26 Canal St, New York, NY 10002","Class":"A","Latitude":"40.7143078","Longitude":"-73.9903911","RecOpenYear":"2016","Seq":"1","img1":"https:\/\/raw.githubusercontent.com\/hsianghsi\/images\/main\/dimes360\/dimes360_Little_Canal_2.jpg","img2":"https:\/\/raw.githubusercontent.com\/hsianghsi\/images\/main\/dimes360_full\/IMG_20231228_153746_619.jpg","OwnerNumber":"Owner1","OwnerName":"Jereme Bamas","OwnerList":["Jereme Bamas"]},{"DBA":"Scarr's Pizza","Address":"35 Orchard St, New York, NY 10002","Class":"A","Latitude":"40.7157219","Longitude":"-73.9916105","RecOpenYear":"2015","Seq":"1","img1":"https:\/\/raw.githubusercontent.com\/hsianghsi\/images\/main\/dimes360\/dimes360_scarrs_1.jpg","img2":"https:\/\/raw.githubusercontent.com\/hsianghsi\/images\/main\/dimes360_full\/IMG_20231227_221452_954.jpg","OwnerNumber":"Owner3","OwnerName":"Jeremy Young","OwnerList":["Scarr Pimentel","Sara Blomqvist","Jeremy Young"]},{"DBA":"Primo's","Address":"95 W Broadway, New York, NY 10007","Class":"C","Latitude":"40.7153573","Longitude":"-74.0092393","RecOpenYear":"2018","Seq":"1","img1":"","img2":"","OwnerNumber":"Owner12","OwnerName":"Jerry Wartski","OwnerList":["Aisa Shelley","Adam Moonves","Mario Agrario","Victor Assaf","Gerald Barad","Mohammed Diab","Cindy Barad Elias","Fabio Pasquale Granato","Teufik Radoncic","Allan Wartski","Jay Wartski","Jerry Wartski","Tribeca Hotel LLC","Keren Holdings LLC"]},{"DBA":"The Bowery Electric","Address":"327 Bowery, New York, NY 10003","Class":"C","Latitude":"40.7256911","Longitude":"-73.9916718","RecOpenYear":"2008","Seq":"1","img1":"","img2":"","OwnerNumber":"Owner4","OwnerName":"Jesse Malin","OwnerList":["Johnny Yerington","Laura MacCarthy","Robert Startton","Jesse Malin"]},{"DBA":"Le Crocodile","Address":"80 Wythe Avenue, Brooklyn, New York 11211 ","Class":"C","Latitude":"40.7219036","Longitude":"-73.9580608","RecOpenYear":"2020","Seq":"1","img1":"https:\/\/raw.githubusercontent.com\/hsianghsi\/images\/main\/dimes360\/dimes360_le_crocodile_1.jpg","img2":"https:\/\/raw.githubusercontent.com\/hsianghsi\/images\/main\/dimes360_full\/IMG_20231228_162110_507.jpg","OwnerNumber":"Owner3","OwnerName":"Joe Correia","OwnerList":["Jon Neidich","John Dantzler","Joe Correia","Aidan O'Neal","Jake Leiber"]},{"DBA":"Le Crocodile","Address":"80 Wythe Avenue, Brooklyn, New York 11211 ","Class":"C","Latitude":"40.7219036","Longitude":"-73.9580608","RecOpenYear":"2020","Seq":"1","img1":"https:\/\/raw.githubusercontent.com\/hsianghsi\/images\/main\/dimes360\/dimes360_le_crocodile_1.jpg","img2":"https:\/\/raw.githubusercontent.com\/hsianghsi\/images\/main\/dimes360_full\/IMG_20231228_162110_507.jpg","OwnerNumber":"Owner2","OwnerName":"John Dantzler","OwnerList":["Jon Neidich","John Dantzler","Joe Correia","Aidan O'Neal","Jake Leiber"]},{"DBA":"Bar Belly","Address":"14 Orchard St, New York, NY 10002","Class":"A","Latitude":"40.71514056","Longitude":"-73.9916666","RecOpenYear":"2013","Seq":"1","img1":"","img2":"","OwnerNumber":"Owner7","OwnerName":"John Shimkus","OwnerList":["Benjamin Towill","Philip Winser","Tommy Mendes","Mauricio Melo","Annabel Bates","Toby Graham","John Shimkus"]},{"DBA":"Niagara","Address":"112 Avenue A, New York, NY 10009","Class":"C","Latitude":"40.725928","Longitude":"-73.9834617","RecOpenYear":"1997","Seq":"1","img1":"","img2":"","OwnerNumber":"Owner1","OwnerName":"Johnny Yerington","OwnerList":["Johnny Yerington","Laura MacCarthy","Paul Milan"]},{"DBA":"The Bowery Electric","Address":"327 Bowery, New York, NY 10003","Class":"C","Latitude":"40.7256911","Longitude":"-73.9916718","RecOpenYear":"2008","Seq":"1","img1":"","img2":"","OwnerNumber":"Owner1","OwnerName":"Johnny Yerington","OwnerList":["Johnny Yerington","Laura MacCarthy","Robert Startton","Jesse Malin"]},{"DBA":"Treasure Club","Address":"22 Orchard St, New York, NY 10002","Class":"A","Latitude":"40.7153775","Longitude":"-73.9915426","RecOpenYear":"2022","Seq":"1","img1":"","img2":"","OwnerNumber":"Owner1","OwnerName":"Johnny Yerington","OwnerList":["Johnny Yerington","Christopher Yerington"]},{"DBA":"Acme Bar & Grill","Address":"9 Great Jones Street, New York, New York 10012","Class":"C","Latitude":"40.7272258","Longitude":"-73.9940546","RecOpenYear":"2012","Seq":"1","img1":"","img2":"","OwnerNumber":"Owner1","OwnerName":"Jon Neidich","OwnerList":["Jon Neidich","Jean-Marc Houmard","Huy Chi Le"]},{"DBA":"Dudley's","Address":"85 Orchard St, New York, NY 10002","Class":"B","Latitude":"40.7180663","Longitude":"-73.99044","RecOpenYear":"2012","Seq":"2","img1":"https:\/\/raw.githubusercontent.com\/hsianghsi\/images\/main\/dimes360\/dimes360_dudleys_3.jpg","img2":"https:\/\/raw.githubusercontent.com\/hsianghsi\/images\/main\/dimes360_full\/IMG_20231227_221908_993.jpg","OwnerNumber":"Owner1","OwnerName":"Jon Neidich","OwnerList":["Jon Neidich","Nicholas Mathers","Steven Hiroyuki Aoki","Benedict Dos Remedios"]},{"DBA":"The Happiest Hour","Address":"121 W 10th Street, New York, New York 10011","Class":"C","Latitude":"40.734818","Longitude":"-73.9996406","RecOpenYear":"2015","Seq":"1","img1":"","img2":"","OwnerNumber":"Owner1","OwnerName":"Jon Neidich","OwnerList":["Jon Neidich","Nicholas Mathers"]},{"DBA":"Recreation","Address":"26 Ann St, New York, NY 10038","Class":"C","Latitude":"40.7103093","Longitude":"-74.0070487","RecOpenYear":"2018","Seq":"1","img1":"","img2":"","OwnerNumber":"Owner1","OwnerName":"Jon Neidich","OwnerList":["Jon Neidich"]},{"DBA":"Le Crocodile","Address":"80 Wythe Avenue, Brooklyn, New York 11211 ","Class":"C","Latitude":"40.7219036","Longitude":"-73.9580608","RecOpenYear":"2020","Seq":"1","img1":"https:\/\/raw.githubusercontent.com\/hsianghsi\/images\/main\/dimes360\/dimes360_le_crocodile_1.jpg","img2":"https:\/\/raw.githubusercontent.com\/hsianghsi\/images\/main\/dimes360_full\/IMG_20231228_162110_507.jpg","OwnerNumber":"Owner1","OwnerName":"Jon Neidich","OwnerList":["Jon Neidich","John Dantzler","Joe Correia","Aidan O'Neal","Jake Leiber"]},{"DBA":"Bar Blondeau","Address":"80 Wythe Avenue, Brooklyn, New York 11211 ","Class":"C","Latitude":"40.7219036","Longitude":"-73.9580608","RecOpenYear":"2021","Seq":"1","img1":"https:\/\/raw.githubusercontent.com\/hsianghsi\/images\/main\/dimes360\/dimes360_bar_blondeau_4.jpg","img2":"https:\/\/raw.githubusercontent.com\/hsianghsi\/images\/main\/dimes360_full\/IMG_20231227_220457_268.jpg","OwnerNumber":"Owner1","OwnerName":"Jon Neidich","OwnerList":["Jon Neidich","Aidan O'Neal","Jake Leiber"]},{"DBA":"The Nines","Address":"9 Great Jones Street, New York, New York 10012","Class":"C","Latitude":"40.7274955","Longitude":"-73.9938555","RecOpenYear":"2022","Seq":"1","img1":"","img2":"","OwnerNumber":"Owner1","OwnerName":"Jon Neidich","OwnerList":["Jon Neidich","Jean-Marc Houmard","Huy Chi Le"]},{"DBA":"Le Dive","Address":"37 Canal St, New York, NY 10002","Class":"A","Latitude":"40.7147362","Longitude":"-73.9909568","RecOpenYear":"2022","Seq":"2","img1":"https:\/\/raw.githubusercontent.com\/hsianghsi\/images\/main\/dimes360\/dimes360_la_dive_14.jpg","img2":"https:\/\/raw.githubusercontent.com\/hsianghsi\/images\/main\/dimes360_full\/IMG_20231228_161339_819.jpg","OwnerNumber":"Owner1","OwnerName":"Jon Neidich","OwnerList":["Jon Neidich"]},{"DBA":"Deux Chats","Address":"27 Broadway, Brooklyn, NY 11249","Class":"C","Latitude":"40.7108795","Longitude":"-73.9677352","RecOpenYear":"2022","Seq":"3","img1":"https:\/\/raw.githubusercontent.com\/hsianghsi\/images\/main\/dimes360\/dimes360_Deux_Chats_2.jpg","img2":"https:\/\/raw.githubusercontent.com\/hsianghsi\/images\/main\/dimes360_full\/IMG_20231227_223424_160.jpg","OwnerNumber":"Owner1","OwnerName":"Jon Neidich","OwnerList":["Jon Neidich"]},{"DBA":"Mr. Fong's","Address":"40 Market St, New York, NY 10002","Class":"B","Latitude":"40.7124273","Longitude":"-73.9942509","RecOpenYear":"2015","Seq":"1","img1":"https:\/\/raw.githubusercontent.com\/hsianghsi\/images\/main\/dimes360\/dimes360_Mr_Fongs_1.jpg","img2":"https:\/\/raw.githubusercontent.com\/hsianghsi\/images\/main\/dimes360_full\/IMG_20231227_224911_900.jpg","OwnerNumber":"Owner5","OwnerName":"Jordan Hadley","OwnerList":["Aisa Shelley","Adam Moonves","Noah Shelley","Lucas Moran","Jordan Hadley","Daniel Gold","Blue Keilin LLC"]},{"DBA":"Parcelle","Address":"135C Division St, New York, NY 10002","Class":"A","Latitude":"40.7143722","Longitude":"-73.9912687","RecOpenYear":"2022","Seq":"1","img1":"https:\/\/raw.githubusercontent.com\/hsianghsi\/images\/main\/dimes360\/dimes360_Parcelle_4.jpg","img2":"https:\/\/raw.githubusercontent.com\/hsianghsi\/images\/main\/dimes360_full\/IMG_20231228_160012_432.jpg","OwnerNumber":"Owner2","OwnerName":"Joshua Abramson","OwnerList":["Grant Reynolds","Joshua Abramson","Gabrielle Finley"]},{"DBA":"Bacaro","Address":"136 Division St, New York, NY 10002","Class":"A","Latitude":"40.7145454","Longitude":"-73.9914975","RecOpenYear":"2007","Seq":"1","img1":"","img2":"","OwnerNumber":"Owner1","OwnerName":"Kama Geary","OwnerList":["Kama Geary","Adam Shepard"]},{"DBA":"Ferry Boat Inn","Address":"Helford Passage, Falmouth TR11 5LB, United Kingdom","Class":"D","Latitude":"50.10042068","Longitude":"-5.1287846","RecOpenYear":"2017","Seq":"1","img1":"","img2":"","OwnerNumber":"Owner2","OwnerName":"Kate Towill","OwnerList":["Benjamin Towill","Kate Towill","Alex Towill","Sarah Towill"]},{"DBA":"Basic Kitchen","Address":"82 Wentworth St, Charleston, SC 29401","Class":"D","Latitude":"32.782103","Longitude":"-79.935045","RecOpenYear":"2017","Seq":"2","img1":"","img2":"","OwnerNumber":"Owner2","OwnerName":"Kate Towill","OwnerList":["Benjamin Towill","Kate Towill"]},{"DBA":"Post House","Address":"101 Pitt St, Mt Pleasant, SC 29464, United States","Class":"D","Latitude":"32.786801","Longitude":"-79.876403","RecOpenYear":"2020","Seq":"1","img1":"","img2":"","OwnerNumber":"Owner2","OwnerName":"Kate Towill","OwnerList":["Benjamin Towill","Kate Towill"]},{"DBA":"The River","Address":"102 Bayard St, New York, NY 10013","Class":"C","Latitude":"40.7161999","Longitude":"-73.99969235","RecOpenYear":"2022","Seq":"1","img1":"https:\/\/raw.githubusercontent.com\/hsianghsi\/images\/main\/dimes360\/dimes360_The_River_3.jpg","img2":"https:\/\/raw.githubusercontent.com\/hsianghsi\/images\/main\/dimes360_full\/IMG_20231228_154108_408.jpg","OwnerNumber":"Owner6","OwnerName":"Keisuke Kasagi","OwnerList":["Aaron Aujla","Benjamin Bloomstein","Emily Adams Bode","David Komurek","Yudai Kanayama","Keisuke Kasagi"]},{"DBA":"Primo's","Address":"95 W Broadway, New York, NY 10007","Class":"C","Latitude":"40.7153573","Longitude":"-74.0092393","RecOpenYear":"2018","Seq":"1","img1":"","img2":"","OwnerNumber":"Owner14","OwnerName":"Keren Holdings LLC","OwnerList":["Aisa Shelley","Adam Moonves","Mario Agrario","Victor Assaf","Gerald Barad","Mohammed Diab","Cindy Barad Elias","Fabio Pasquale Granato","Teufik Radoncic","Allan Wartski","Jay Wartski","Jerry Wartski","Tribeca Hotel LLC","Keren Holdings LLC"]},{"DBA":"Kiki's","Address":"130 Division St, New York, NY 10002","Class":"A","Latitude":"40.7145315","Longitude":"-73.9919097","RecOpenYear":"2015","Seq":"1","img1":"https:\/\/raw.githubusercontent.com\/hsianghsi\/images\/main\/dimes360\/dimes360_Kiki_2.jpg","img2":"https:\/\/raw.githubusercontent.com\/hsianghsi\/images\/main\/dimes360_full\/IMG_20231228_155639_278.jpg","OwnerNumber":"Owner1","OwnerName":"Kiki Karamintzas","OwnerList":["Kiki Karamintzas","Pavlos Sierros","Derek Tighe"]},{"DBA":"Kiki's Grill and Rotisserie","Address":"121 Division St, New York, NY 10002","Class":"A","Latitude":"40.7143643","Longitude":"-73.9918059","RecOpenYear":"2019","Seq":"1","img1":"","img2":"","OwnerNumber":"Owner1","OwnerName":"Kiki Karamintzas","OwnerList":["Kiki Karamintzas","Pavlos Sierros","Derek Tighe"]},{"DBA":"Gelso & Grand","Address":"186 Grand St, New York, NY 10013","Class":"C","Latitude":"40.7194756","Longitude":"-73.9974033","RecOpenYear":"2015","Seq":"1","img1":"","img2":"","OwnerNumber":"Owner1","OwnerName":"Koorosh Bakhtiar","OwnerList":["Koorosh Bakhtiar","Nima Garos"]},{"DBA":"Jajaja","Address":"162 E Broadway, New York, NY 10002","Class":"A","Latitude":"40.714283","Longitude":"-73.9903859","RecOpenYear":"2017","Seq":"1","img1":"","img2":"","OwnerNumber":"Owner1","OwnerName":"Koorosh Bakhtiar","OwnerList":["Koorosh Bakhtiar","Nima Garos"]},{"DBA":"Jajaja West Village;Bar Nena","Address":"63 Carmine St, New York, NY 10014","Class":"C","Latitude":"40.7297917","Longitude":"-74.0045465","RecOpenYear":"2019","Seq":"1","img1":"","img2":"","OwnerNumber":"Owner1","OwnerName":"Koorosh Bakhtiar","OwnerList":["Koorosh Bakhtiar","Nima Garos"]},{"DBA":"Jajaja Hudson Yards","Address":"450 W 33rd St, New York, NY 10001","Class":"C","Latitude":"40.7530239","Longitude":"-73.9995138","RecOpenYear":"2020","Seq":"1","img1":"","img2":"","OwnerNumber":"Owner1","OwnerName":"Koorosh Bakhtiar","OwnerList":["Koorosh Bakhtiar","Nima Garos"]},{"DBA":"Jajaja Williamsburg","Address":"119 Kent Ave, Brooklyn, NY 11249","Class":"C","Latitude":"40.720172","Longitude":"-73.961739","RecOpenYear":"2021","Seq":"1","img1":"","img2":"","OwnerNumber":"Owner1","OwnerName":"Koorosh Bakhtiar","OwnerList":["Koorosh Bakhtiar","Nima Garos"]},{"DBA":"Manero's","Address":"113 Mulberry St, New York, NY 10013","Class":"C","Latitude":"40.7176091","Longitude":"-73.9984198","RecOpenYear":"2022","Seq":"1","img1":"https:\/\/raw.githubusercontent.com\/hsianghsi\/images\/main\/dimes360\/dimes360_Maneros_1.jpg","img2":"","OwnerNumber":"Owner3","OwnerName":"Koorosh Bakhtiar","OwnerList":["Roman Grandinetti","Nima Garos","Koorosh Bakhtiar","Hassan Gholizadeh"]},{"DBA":"Niagara","Address":"112 Avenue A, New York, NY 10009","Class":"C","Latitude":"40.725928","Longitude":"-73.9834617","RecOpenYear":"1997","Seq":"1","img1":"","img2":"","OwnerNumber":"Owner2","OwnerName":"Laura MacCarthy","OwnerList":["Johnny Yerington","Laura MacCarthy","Paul Milan"]},{"DBA":"The Bowery Electric","Address":"327 Bowery, New York, NY 10003","Class":"C","Latitude":"40.7256911","Longitude":"-73.9916718","RecOpenYear":"2008","Seq":"1","img1":"","img2":"","OwnerNumber":"Owner2","OwnerName":"Laura MacCarthy","OwnerList":["Johnny Yerington","Laura MacCarthy","Robert Startton","Jesse Malin"]},{"DBA":"Clandestino","Address":"35 Canal St, New York, NY 10002","Class":"A","Latitude":"40.7147395","Longitude":"-73.9908755","RecOpenYear":"2006","Seq":"1","img1":"https:\/\/raw.githubusercontent.com\/hsianghsi\/images\/main\/dimes360\/dimes360_Clandestino_3.jpg","img2":"https:\/\/raw.githubusercontent.com\/hsianghsi\/images\/main\/dimes360_full\/IMG_20231227_224136_692.jpg","OwnerNumber":"Owner2","OwnerName":"Laure Travers","OwnerList":["Jeffrey Simon","Laure Travers"]},{"DBA":"LES Crepes & Taqueria","Address":"25 Essex St A, New York, NY 10002","Class":"A","Latitude":"40.71552525","Longitude":"-73.989939","RecOpenYear":"2013","Seq":"1","img1":"","img2":"","OwnerNumber":"Owner3","OwnerName":"Lazaro Franco","OwnerList":["Olimpiu Balasa","Rojas Tovar","Lazaro Franco"]},{"DBA":"Hart's","Address":"506 Franklin Ave, Brooklyn, NY 11238","Class":"C","Latitude":"40.68159736","Longitude":"-73.95587144","RecOpenYear":"2016","Seq":"1","img1":"","img2":"","OwnerNumber":"Owner3","OwnerName":"Leah Campbell","OwnerList":["Nialls Fallon","Nick Perkins","Leah Campbell"]},{"DBA":"Cervo's","Address":"43 Canal St, New York, NY 10002","Class":"A","Latitude":"40.7148956","Longitude":"-73.991323","RecOpenYear":"2017","Seq":"1","img1":"","img2":"","OwnerNumber":"Owner3","OwnerName":"Leah Campbell","OwnerList":["Nialls Fallon","Nick Perkins","Leah Campbell"]},{"DBA":"The Fly","Address":"549 Classon Ave, Brooklyn, NY 11238","Class":"C","Latitude":"40.682011","Longitude":"-73.9584752","RecOpenYear":"2019","Seq":"1","img1":"","img2":"","OwnerNumber":"Owner3","OwnerName":"Leah Campbell","OwnerList":["Nialls Fallon","Nick Perkins","Leah Campbell"]},{"DBA":"Mr. Fong's","Address":"40 Market St, New York, NY 10002","Class":"B","Latitude":"40.7124273","Longitude":"-73.9942509","RecOpenYear":"2015","Seq":"1","img1":"https:\/\/raw.githubusercontent.com\/hsianghsi\/images\/main\/dimes360\/dimes360_Mr_Fongs_1.jpg","img2":"https:\/\/raw.githubusercontent.com\/hsianghsi\/images\/main\/dimes360_full\/IMG_20231227_224911_900.jpg","OwnerNumber":"Owner4","OwnerName":"Lucas Moran","OwnerList":["Aisa Shelley","Adam Moonves","Noah Shelley","Lucas Moran","Jordan Hadley","Daniel Gold","Blue Keilin LLC"]},{"DBA":"Primo's","Address":"95 W Broadway, New York, NY 10007","Class":"C","Latitude":"40.7153573","Longitude":"-74.0092393","RecOpenYear":"2018","Seq":"1","img1":"","img2":"","OwnerNumber":"Owner3","OwnerName":"Mario Agrario","OwnerList":["Aisa Shelley","Adam Moonves","Mario Agrario","Victor Assaf","Gerald Barad","Mohammed Diab","Cindy Barad Elias","Fabio Pasquale Granato","Teufik Radoncic","Allan Wartski","Jay Wartski","Jerry Wartski","Tribeca Hotel LLC","Keren Holdings LLC"]},{"DBA":"Estela","Address":"47 E Houston St 1st floor, New York, NY 10012","Class":"C","Latitude":"40.7246739","Longitude":"-73.9947509","RecOpenYear":"2013","Seq":"1","img1":"","img2":"","OwnerNumber":"Owner2","OwnerName":"Mark Connell","OwnerList":["Ignacio Mattos","Mark Connell"]},{"DBA":"Metrograph Commissary","Address":"7 Ludlow St, New York, NY 10002","Class":"A","Latitude":"40.7150926","Longitude":"-73.9911357","RecOpenYear":"2016","Seq":"1","img1":"https:\/\/raw.githubusercontent.com\/hsianghsi\/images\/main\/dimes360\/dimes360_Metrograph_2.jpg","img2":"https:\/\/raw.githubusercontent.com\/hsianghsi\/images\/main\/dimes360_full\/IMG_20231228_155234_418.jpg","OwnerNumber":"Owner2","OwnerName":"Matthew Holt","OwnerList":["Alexander Olch","Matthew Holt","Ethan Oberman","Jacob Perlin","Samizdat Holdings LLC"]},{"DBA":"Bar Belly","Address":"14 Orchard St, New York, NY 10002","Class":"A","Latitude":"40.71514056","Longitude":"-73.9916666","RecOpenYear":"2013","Seq":"1","img1":"","img2":"","OwnerNumber":"Owner4","OwnerName":"Mauricio Melo","OwnerList":["Benjamin Towill","Philip Winser","Tommy Mendes","Mauricio Melo","Annabel Bates","Toby Graham","John Shimkus"]},{"DBA":"Carlota","Address":"14A Orchard St, New York, NY 10002","Class":"A","Latitude":"40.715019","Longitude":"-73.991687","RecOpenYear":"2023","Seq":"1","img1":"","img2":"","OwnerNumber":"Owner2","OwnerName":"Mauricio Melo","OwnerList":["Tommy Mendes","Mauricio Melo","Alfredo Avilla"]},{"DBA":"Shabushabu Mayumon","Address":"115 Division St, New York, NY 10002","Class":"A","Latitude":"40.7142841","Longitude":"-73.992066","RecOpenYear":"2019","Seq":"1","img1":"","img2":"","OwnerNumber":"Owner2","OwnerName":"Mayu Kanatani","OwnerList":["Yoshihito Kida","Mayu Kanatani"]},{"DBA":"Corner Bar","Address":"9 Orchard St, New York, NY 10002","Class":"A","Latitude":"40.7149402","Longitude":"-73.992298","RecOpenYear":"2021","Seq":"2","img1":"https:\/\/raw.githubusercontent.com\/hsianghsi\/images\/main\/dimes360\/dimes360_Corner_Bar_1.jpg","img2":"https:\/\/raw.githubusercontent.com\/hsianghsi\/images\/main\/dimes360_full\/IMG_20231228_154807_022.jpg","OwnerNumber":"Owner3","OwnerName":"Michael Mullen","OwnerList":["Ignacio Mattos","Neal Peskind","Michael Mullen","Orchard Street Restaurant Management LLC","TOURBILLON9 LLC"]},{"DBA":"The Orchard Townhouse","Address":"242 10th Ave, New York, NY 10001","Class":"C","Latitude":"40.7483879","Longitude":"-74.003439","RecOpenYear":"2019","Seq":"1","img1":"","img2":"","OwnerNumber":"Owner4","OwnerName":"Michael Navarette","OwnerList":["Philip Winser","Jeffrey Bogino","Natalie Freihon","Michael Navarette","Trevor Stahelski","Michelle Watanabe"]},{"DBA":"The Orchard Townhouse","Address":"242 10th Ave, New York, NY 10001","Class":"C","Latitude":"40.7483879","Longitude":"-74.003439","RecOpenYear":"2019","Seq":"1","img1":"","img2":"","OwnerNumber":"Owner6","OwnerName":"Michelle Watanabe","OwnerList":["Philip Winser","Jeffrey Bogino","Natalie Freihon","Michael Navarette","Trevor Stahelski","Michelle Watanabe"]},{"DBA":"Cocoron Market","Address":"61 Delancey St, New York, NY 10002","Class":"B","Latitude":"40.7191095","Longitude":"-73.9908638","RecOpenYear":"2011","Seq":"1","img1":"","img2":"","OwnerNumber":"Owner3","OwnerName":"Mika Ohie","OwnerList":["Yoshihito Kida","Namgyal Gurung","Mika Ohie"]},{"DBA":"Primo's","Address":"95 W Broadway, New York, NY 10007","Class":"C","Latitude":"40.7153573","Longitude":"-74.0092393","RecOpenYear":"2018","Seq":"1","img1":"","img2":"","OwnerNumber":"Owner6","OwnerName":"Mohammed Diab","OwnerList":["Aisa Shelley","Adam Moonves","Mario Agrario","Victor Assaf","Gerald Barad","Mohammed Diab","Cindy Barad Elias","Fabio Pasquale Granato","Teufik Radoncic","Allan Wartski","Jay Wartski","Jerry Wartski","Tribeca Hotel LLC","Keren Holdings LLC"]},{"DBA":"Cocoron Market","Address":"61 Delancey St, New York, NY 10002","Class":"B","Latitude":"40.7191095","Longitude":"-73.9908638","RecOpenYear":"2011","Seq":"1","img1":"","img2":"","OwnerNumber":"Owner2","OwnerName":"Namgyal Gurung","OwnerList":["Yoshihito Kida","Namgyal Gurung","Mika Ohie"]},{"DBA":"Cocoron","Address":"16 Delancey St, New York, NY 10002","Class":"C","Latitude":"40.72031275","Longitude":"-73.99304914","RecOpenYear":"2017","Seq":"1","img1":"","img2":"","OwnerNumber":"Owner2","OwnerName":"Namgyal Gurung","OwnerList":["Yoshihito Kida","Namgyal Gurung"]},{"DBA":"The Orchard Townhouse","Address":"242 10th Ave, New York, NY 10001","Class":"C","Latitude":"40.7483879","Longitude":"-74.003439","RecOpenYear":"2019","Seq":"1","img1":"","img2":"","OwnerNumber":"Owner3","OwnerName":"Natalie Freihon","OwnerList":["Philip Winser","Jeffrey Bogino","Natalie Freihon","Michael Navarette","Trevor Stahelski","Michelle Watanabe"]},{"DBA":"M\u00e9xico Aut\u00e9ntico","Address":"396 6th Ave, Brooklyn, NY 11215","Class":"C","Latitude":"40.6693981","Longitude":"-73.9829869","RecOpenYear":"2021","Seq":"1","img1":"","img2":"","OwnerNumber":"Owner1","OwnerName":"Natalin Perez","OwnerList":["Natalin Perez"]},{"DBA":"Mictlan M\u00e9xico","Address":"17 Orchard St, New York, NY 10002","Class":"A","Latitude":"40.71525258","Longitude":"-73.9918384","RecOpenYear":"2021","Seq":"2","img1":"","img2":"https:\/\/raw.githubusercontent.com\/hsianghsi\/images\/main\/dimes360_full\/IMG_20231227_221315_679.jpg","OwnerNumber":"Owner1","OwnerName":"Natalin Perez","OwnerList":["Natalin Perez"]},{"DBA":"Corner Bar","Address":"9 Orchard St, New York, NY 10002","Class":"A","Latitude":"40.7149402","Longitude":"-73.992298","RecOpenYear":"2021","Seq":"2","img1":"https:\/\/raw.githubusercontent.com\/hsianghsi\/images\/main\/dimes360\/dimes360_Corner_Bar_1.jpg","img2":"https:\/\/raw.githubusercontent.com\/hsianghsi\/images\/main\/dimes360_full\/IMG_20231228_154807_022.jpg","OwnerNumber":"Owner2","OwnerName":"Neal Peskind","OwnerList":["Ignacio Mattos","Neal Peskind","Michael Mullen","Orchard Street Restaurant Management LLC","TOURBILLON9 LLC"]},{"DBA":"Maiden Lane","Address":"162 Avenue B, New York, NY 10009","Class":"C","Latitude":"40.7271258","Longitude":"-73.9798625","RecOpenYear":"2013","Seq":"1","img1":"","img2":"","OwnerNumber":"Owner1","OwnerName":"Nialls Fallon","OwnerList":["Nialls Fallon","Gareth Maccubbin","David Drinkwater","Schuyler Klaassen","Samuel Chang"]},{"DBA":"Hart's","Address":"506 Franklin Ave, Brooklyn, NY 11238","Class":"C","Latitude":"40.68159736","Longitude":"-73.95587144","RecOpenYear":"2016","Seq":"1","img1":"","img2":"","OwnerNumber":"Owner1","OwnerName":"Nialls Fallon","OwnerList":["Nialls Fallon","Nick Perkins","Leah Campbell"]},{"DBA":"Cervo's","Address":"43 Canal St, New York, NY 10002","Class":"A","Latitude":"40.7148956","Longitude":"-73.991323","RecOpenYear":"2017","Seq":"1","img1":"","img2":"","OwnerNumber":"Owner1","OwnerName":"Nialls Fallon","OwnerList":["Nialls Fallon","Nick Perkins","Leah Campbell"]},{"DBA":"The Fly","Address":"549 Classon Ave, Brooklyn, NY 11238","Class":"C","Latitude":"40.682011","Longitude":"-73.9584752","RecOpenYear":"2019","Seq":"1","img1":"","img2":"","OwnerNumber":"Owner1","OwnerName":"Nialls Fallon","OwnerList":["Nialls Fallon","Nick Perkins","Leah Campbell"]},{"DBA":"Dudley's","Address":"85 Orchard St, New York, NY 10002","Class":"B","Latitude":"40.7180663","Longitude":"-73.99044","RecOpenYear":"2012","Seq":"2","img1":"https:\/\/raw.githubusercontent.com\/hsianghsi\/images\/main\/dimes360\/dimes360_dudleys_3.jpg","img2":"https:\/\/raw.githubusercontent.com\/hsianghsi\/images\/main\/dimes360_full\/IMG_20231227_221908_993.jpg","OwnerNumber":"Owner2","OwnerName":"Nicholas Mathers","OwnerList":["Jon Neidich","Nicholas Mathers","Steven Hiroyuki Aoki","Benedict Dos Remedios"]},{"DBA":"The Happiest Hour","Address":"121 W 10th Street, New York, New York 10011","Class":"C","Latitude":"40.734818","Longitude":"-73.9996406","RecOpenYear":"2015","Seq":"1","img1":"","img2":"","OwnerNumber":"Owner2","OwnerName":"Nicholas Mathers","OwnerList":["Jon Neidich","Nicholas Mathers"]},{"DBA":"Hart's","Address":"506 Franklin Ave, Brooklyn, NY 11238","Class":"C","Latitude":"40.68159736","Longitude":"-73.95587144","RecOpenYear":"2016","Seq":"1","img1":"","img2":"","OwnerNumber":"Owner2","OwnerName":"Nick Perkins","OwnerList":["Nialls Fallon","Nick Perkins","Leah Campbell"]},{"DBA":"Cervo's","Address":"43 Canal St, New York, NY 10002","Class":"A","Latitude":"40.7148956","Longitude":"-73.991323","RecOpenYear":"2017","Seq":"1","img1":"","img2":"","OwnerNumber":"Owner2","OwnerName":"Nick Perkins","OwnerList":["Nialls Fallon","Nick Perkins","Leah Campbell"]},{"DBA":"The Fly","Address":"549 Classon Ave, Brooklyn, NY 11238","Class":"C","Latitude":"40.682011","Longitude":"-73.9584752","RecOpenYear":"2019","Seq":"1","img1":"","img2":"","OwnerNumber":"Owner2","OwnerName":"Nick Perkins","OwnerList":["Nialls Fallon","Nick Perkins","Leah Campbell"]},{"DBA":"Gelso & Grand","Address":"186 Grand St, New York, NY 10013","Class":"C","Latitude":"40.7194756","Longitude":"-73.9974033","RecOpenYear":"2015","Seq":"1","img1":"","img2":"","OwnerNumber":"Owner2","OwnerName":"Nima Garos","OwnerList":["Koorosh Bakhtiar","Nima Garos"]},{"DBA":"Jajaja","Address":"162 E Broadway, New York, NY 10002","Class":"A","Latitude":"40.714283","Longitude":"-73.9903859","RecOpenYear":"2017","Seq":"1","img1":"","img2":"","OwnerNumber":"Owner2","OwnerName":"Nima Garos","OwnerList":["Koorosh Bakhtiar","Nima Garos"]},{"DBA":"Jajaja West Village;Bar Nena","Address":"63 Carmine St, New York, NY 10014","Class":"C","Latitude":"40.7297917","Longitude":"-74.0045465","RecOpenYear":"2019","Seq":"1","img1":"","img2":"","OwnerNumber":"Owner2","OwnerName":"Nima Garos","OwnerList":["Koorosh Bakhtiar","Nima Garos"]},{"DBA":"Jajaja Hudson Yards","Address":"450 W 33rd St, New York, NY 10001","Class":"C","Latitude":"40.7530239","Longitude":"-73.9995138","RecOpenYear":"2020","Seq":"1","img1":"","img2":"","OwnerNumber":"Owner2","OwnerName":"Nima Garos","OwnerList":["Koorosh Bakhtiar","Nima Garos"]},{"DBA":"Jajaja Williamsburg","Address":"119 Kent Ave, Brooklyn, NY 11249","Class":"C","Latitude":"40.720172","Longitude":"-73.961739","RecOpenYear":"2021","Seq":"1","img1":"","img2":"","OwnerNumber":"Owner2","OwnerName":"Nima Garos","OwnerList":["Koorosh Bakhtiar","Nima Garos"]},{"DBA":"Manero's","Address":"113 Mulberry St, New York, NY 10013","Class":"C","Latitude":"40.7176091","Longitude":"-73.9984198","RecOpenYear":"2022","Seq":"1","img1":"https:\/\/raw.githubusercontent.com\/hsianghsi\/images\/main\/dimes360\/dimes360_Maneros_1.jpg","img2":"","OwnerNumber":"Owner2","OwnerName":"Nima Garos","OwnerList":["Roman Grandinetti","Nima Garos","Koorosh Bakhtiar","Hassan Gholizadeh"]},{"DBA":"Mr. Fong's","Address":"40 Market St, New York, NY 10002","Class":"B","Latitude":"40.7124273","Longitude":"-73.9942509","RecOpenYear":"2015","Seq":"1","img1":"https:\/\/raw.githubusercontent.com\/hsianghsi\/images\/main\/dimes360\/dimes360_Mr_Fongs_1.jpg","img2":"https:\/\/raw.githubusercontent.com\/hsianghsi\/images\/main\/dimes360_full\/IMG_20231227_224911_900.jpg","OwnerNumber":"Owner3","OwnerName":"Noah Shelley","OwnerList":["Aisa Shelley","Adam Moonves","Noah Shelley","Lucas Moran","Jordan Hadley","Daniel Gold","Blue Keilin LLC"]},{"DBA":"LES Crepes & Taqueria","Address":"25 Essex St A, New York, NY 10002","Class":"A","Latitude":"40.71552525","Longitude":"-73.989939","RecOpenYear":"2013","Seq":"1","img1":"","img2":"","OwnerNumber":"Owner1","OwnerName":"Olimpiu Balasa","OwnerList":["Olimpiu Balasa","Rojas Tovar","Lazaro Franco"]},{"DBA":"Corner Bar","Address":"9 Orchard St, New York, NY 10002","Class":"A","Latitude":"40.7149402","Longitude":"-73.992298","RecOpenYear":"2021","Seq":"2","img1":"https:\/\/raw.githubusercontent.com\/hsianghsi\/images\/main\/dimes360\/dimes360_Corner_Bar_1.jpg","img2":"https:\/\/raw.githubusercontent.com\/hsianghsi\/images\/main\/dimes360_full\/IMG_20231228_154807_022.jpg","OwnerNumber":"Owner4","OwnerName":"Orchard Street Restaurant Management LLC","OwnerList":["Ignacio Mattos","Neal Peskind","Michael Mullen","Orchard Street Restaurant Management LLC","TOURBILLON9 LLC"]},{"DBA":"Niagara","Address":"112 Avenue A, New York, NY 10009","Class":"C","Latitude":"40.725928","Longitude":"-73.9834617","RecOpenYear":"1997","Seq":"1","img1":"","img2":"","OwnerNumber":"Owner3","OwnerName":"Paul Milan","OwnerList":["Johnny Yerington","Laura MacCarthy","Paul Milan"]},{"DBA":"Forgtmenot","Address":"138 Division St, New York, NY 10002","Class":"A","Latitude":"40.7145711","Longitude":"-73.9915376","RecOpenYear":"2012","Seq":"1","img1":"https:\/\/raw.githubusercontent.com\/hsianghsi\/images\/main\/dimes360\/dimes360_FMN_3.jpg","img2":"https:\/\/raw.githubusercontent.com\/hsianghsi\/images\/main\/dimes360_full\/IMG_20231228_155125_120.jpg","OwnerNumber":"Owner1","OwnerName":"Pavlos Sierros","OwnerList":["Pavlos Sierros","Abigail Sierros"]},{"DBA":"Kiki's","Address":"130 Division St, New York, NY 10002","Class":"A","Latitude":"40.7145315","Longitude":"-73.9919097","RecOpenYear":"2015","Seq":"1","img1":"https:\/\/raw.githubusercontent.com\/hsianghsi\/images\/main\/dimes360\/dimes360_Kiki_2.jpg","img2":"https:\/\/raw.githubusercontent.com\/hsianghsi\/images\/main\/dimes360_full\/IMG_20231228_155639_278.jpg","OwnerNumber":"Owner2","OwnerName":"Pavlos Sierros","OwnerList":["Kiki Karamintzas","Pavlos Sierros","Derek Tighe"]},{"DBA":"Kiki's Grill and Rotisserie","Address":"121 Division St, New York, NY 10002","Class":"A","Latitude":"40.7143643","Longitude":"-73.9918059","RecOpenYear":"2019","Seq":"1","img1":"","img2":"","OwnerNumber":"Owner2","OwnerName":"Pavlos Sierros","OwnerList":["Kiki Karamintzas","Pavlos Sierros","Derek Tighe"]},{"DBA":"Bar Belly","Address":"14 Orchard St, New York, NY 10002","Class":"A","Latitude":"40.71514056","Longitude":"-73.9916666","RecOpenYear":"2013","Seq":"1","img1":"","img2":"","OwnerNumber":"Owner2","OwnerName":"Philip Winser","OwnerList":["Benjamin Towill","Philip Winser","Tommy Mendes","Mauricio Melo","Annabel Bates","Toby Graham","John Shimkus"]},{"DBA":"The Orchard Townhouse","Address":"242 10th Ave, New York, NY 10001","Class":"C","Latitude":"40.7483879","Longitude":"-74.003439","RecOpenYear":"2019","Seq":"1","img1":"","img2":"","OwnerNumber":"Owner1","OwnerName":"Philip Winser","OwnerList":["Philip Winser","Jeffrey Bogino","Natalie Freihon","Michael Navarette","Trevor Stahelski","Michelle Watanabe"]},{"DBA":"Up Stairs","Address":"59 Canal St, New York, NY 10002","Class":"A","Latitude":"40.7150587","Longitude":"-73.9920576","RecOpenYear":"2006","Seq":"1","img1":"","img2":"","OwnerNumber":"Owner1","OwnerName":"Rena Cho","OwnerList":["Rena Cho"]},{"DBA":"The Bowery Electric","Address":"327 Bowery, New York, NY 10003","Class":"C","Latitude":"40.7256911","Longitude":"-73.9916718","RecOpenYear":"2008","Seq":"1","img1":"","img2":"","OwnerNumber":"Owner3","OwnerName":"Robert Startton","OwnerList":["Johnny Yerington","Laura MacCarthy","Robert Startton","Jesse Malin"]},{"DBA":"LES Crepes & Taqueria","Address":"25 Essex St A, New York, NY 10002","Class":"A","Latitude":"40.71552525","Longitude":"-73.989939","RecOpenYear":"2013","Seq":"1","img1":"","img2":"","OwnerNumber":"Owner2","OwnerName":"Rojas Tovar","OwnerList":["Olimpiu Balasa","Rojas Tovar","Lazaro Franco"]},{"DBA":"Regina's Grocery","Address":"27 Orchard St, New York, NY 10002","Class":"A","Latitude":"40.71547867","Longitude":"-73.9916956","RecOpenYear":"2017","Seq":"1","img1":"https:\/\/raw.githubusercontent.com\/hsianghsi\/images\/main\/dimes360\/dimes360_reginas_1.jpg","img2":"https:\/\/raw.githubusercontent.com\/hsianghsi\/images\/main\/dimes360_full\/IMG_20231227_221412_156.jpg","OwnerNumber":"Owner2","OwnerName":"Roman Grandinetti","OwnerList":["Aisa Shelley","Roman Grandinetti"]},{"DBA":"Regina's Grocery - Mulberry","Address":"241 Mulberry St, New York, NY 10012","Class":"C","Latitude":"40.7228775","Longitude":"-73.9960197","RecOpenYear":"2022","Seq":"1","img1":"","img2":"","OwnerNumber":"Owner1","OwnerName":"Roman Grandinetti","OwnerList":["Roman Grandinetti"]},{"DBA":"Manero's","Address":"113 Mulberry St, New York, NY 10013","Class":"C","Latitude":"40.7176091","Longitude":"-73.9984198","RecOpenYear":"2022","Seq":"1","img1":"https:\/\/raw.githubusercontent.com\/hsianghsi\/images\/main\/dimes360\/dimes360_Maneros_1.jpg","img2":"","OwnerNumber":"Owner1","OwnerName":"Roman Grandinetti","OwnerList":["Roman Grandinetti","Nima Garos","Koorosh Bakhtiar","Hassan Gholizadeh"]},{"DBA":"Casino","Address":"171 E Broadway, New York, NY 10002","Class":"A","Latitude":"40.7139367","Longitude":"-73.9896705","RecOpenYear":"2022","Seq":"2","img1":"https:\/\/raw.githubusercontent.com\/hsianghsi\/images\/main\/dimes360\/dimes360_Casino_1.jpg","img2":"https:\/\/raw.githubusercontent.com\/hsianghsi\/images\/main\/dimes360_full\/IMG_20231228_155336_742.jpg","OwnerNumber":"Owner2","OwnerName":"Roman Grandinetti","OwnerList":["Aisa Shelley","Roman Grandinetti"]},{"DBA":"Regina's Grocery - Willamsburg","Address":"45 S 3rd St, Brooklyn, NY 11249","Class":"C","Latitude":"40.7136847","Longitude":"-73.9657829","RecOpenYear":"2023","Seq":"1","img1":"","img2":"","OwnerNumber":"Owner1","OwnerName":"Roman Grandinetti","OwnerList":["Roman Grandinetti"]},{"DBA":"Regina's Grocery - UES","Address":"300 E 88th St, New York, NY 10128","Class":"C","Latitude":"40.7789923","Longitude":"-73.950646","RecOpenYear":"2023","Seq":"2","img1":"","img2":"","OwnerNumber":"Owner1","OwnerName":"Roman Grandinetti","OwnerList":["Roman Grandinetti"]},{"DBA":"Tolo","Address":"28 Canal St, New York, NY 10002","Class":"A","Latitude":"40.7143381","Longitude":"-73.990509","RecOpenYear":"2023","Seq":"1","img1":"","img2":"","OwnerNumber":"Owner2","OwnerName":"Ron Yan","OwnerList":["Grant Reynolds","Ron Yan"]},{"DBA":"Dimes","Address":"49 Canal St, New York, NY 10002","Class":"A","Latitude":"40.7149354","Longitude":"-73.9915654","RecOpenYear":"2015","Seq":"1","img1":"https:\/\/raw.githubusercontent.com\/hsianghsi\/images\/main\/dimes360\/dimes360_dimes_1.jpg","img2":"https:\/\/raw.githubusercontent.com\/hsianghsi\/images\/main\/dimes360_full\/IMG_20231228_161442_057.jpg","OwnerNumber":"Owner1","OwnerName":"Sabrina De Sousa","OwnerList":["Sabrina De Sousa","Alissa Wagner","Caroline Mascolo"]},{"DBA":"Dimes Deli","Address":"143 Division St, New York, NY 10002","Class":"A","Latitude":"40.714439","Longitude":"-73.9908127","RecOpenYear":"2015","Seq":"2","img1":"https:\/\/raw.githubusercontent.com\/hsianghsi\/images\/main\/dimes360\/dimes360_Dimes_Deli_2.jpg","img2":"https:\/\/raw.githubusercontent.com\/hsianghsi\/images\/main\/dimes360_full\/IMG_20231227_223937_502.jpg","OwnerNumber":"Owner1","OwnerName":"Sabrina De Sousa","OwnerList":["Sabrina De Sousa","Alissa Wagner","Caroline Mascolo"]},{"DBA":"Metrograph Commissary","Address":"7 Ludlow St, New York, NY 10002","Class":"A","Latitude":"40.7150926","Longitude":"-73.9911357","RecOpenYear":"2016","Seq":"1","img1":"https:\/\/raw.githubusercontent.com\/hsianghsi\/images\/main\/dimes360\/dimes360_Metrograph_2.jpg","img2":"https:\/\/raw.githubusercontent.com\/hsianghsi\/images\/main\/dimes360_full\/IMG_20231228_155234_418.jpg","OwnerNumber":"Owner5","OwnerName":"Samizdat Holdings LLC","OwnerList":["Alexander Olch","Matthew Holt","Ethan Oberman","Jacob Perlin","Samizdat Holdings LLC"]},{"DBA":"Maiden Lane","Address":"162 Avenue B, New York, NY 10009","Class":"C","Latitude":"40.7271258","Longitude":"-73.9798625","RecOpenYear":"2013","Seq":"1","img1":"","img2":"","OwnerNumber":"Owner5","OwnerName":"Samuel Chang","OwnerList":["Nialls Fallon","Gareth Maccubbin","David Drinkwater","Schuyler Klaassen","Samuel Chang"]},{"DBA":"Scarr's Pizza","Address":"35 Orchard St, New York, NY 10002","Class":"A","Latitude":"40.7157219","Longitude":"-73.9916105","RecOpenYear":"2015","Seq":"1","img1":"https:\/\/raw.githubusercontent.com\/hsianghsi\/images\/main\/dimes360\/dimes360_scarrs_1.jpg","img2":"https:\/\/raw.githubusercontent.com\/hsianghsi\/images\/main\/dimes360_full\/IMG_20231227_221452_954.jpg","OwnerNumber":"Owner2","OwnerName":"Sara Blomqvist","OwnerList":["Scarr Pimentel","Sara Blomqvist","Jeremy Young"]},{"DBA":"Ferry Boat Inn","Address":"Helford Passage, Falmouth TR11 5LB, United Kingdom","Class":"D","Latitude":"50.10042068","Longitude":"-5.1287846","RecOpenYear":"2017","Seq":"1","img1":"","img2":"","OwnerNumber":"Owner4","OwnerName":"Sarah Towill","OwnerList":["Benjamin Towill","Kate Towill","Alex Towill","Sarah Towill"]},{"DBA":"Scarr's Pizza","Address":"35 Orchard St, New York, NY 10002","Class":"A","Latitude":"40.7157219","Longitude":"-73.9916105","RecOpenYear":"2015","Seq":"1","img1":"https:\/\/raw.githubusercontent.com\/hsianghsi\/images\/main\/dimes360\/dimes360_scarrs_1.jpg","img2":"https:\/\/raw.githubusercontent.com\/hsianghsi\/images\/main\/dimes360_full\/IMG_20231227_221452_954.jpg","OwnerNumber":"Owner1","OwnerName":"Scarr Pimentel","OwnerList":["Scarr Pimentel","Sara Blomqvist","Jeremy Young"]},{"DBA":"Maiden Lane","Address":"162 Avenue B, New York, NY 10009","Class":"C","Latitude":"40.7271258","Longitude":"-73.9798625","RecOpenYear":"2013","Seq":"1","img1":"","img2":"","OwnerNumber":"Owner4","OwnerName":"Schuyler Klaassen","OwnerList":["Nialls Fallon","Gareth Maccubbin","David Drinkwater","Schuyler Klaassen","Samuel Chang"]},{"DBA":"Dudley's","Address":"85 Orchard St, New York, NY 10002","Class":"B","Latitude":"40.7180663","Longitude":"-73.99044","RecOpenYear":"2012","Seq":"2","img1":"https:\/\/raw.githubusercontent.com\/hsianghsi\/images\/main\/dimes360\/dimes360_dudleys_3.jpg","img2":"https:\/\/raw.githubusercontent.com\/hsianghsi\/images\/main\/dimes360_full\/IMG_20231227_221908_993.jpg","OwnerNumber":"Owner3","OwnerName":"Steven Hiroyuki Aoki","OwnerList":["Jon Neidich","Nicholas Mathers","Steven Hiroyuki Aoki","Benedict Dos Remedios"]},{"DBA":"Two Bridges Luncheonette","Address":"135 Division St, New York, NY 10002","Class":"A","Latitude":"40.714392","Longitude":"-73.99115","RecOpenYear":"2023","Seq":"1","img1":"","img2":"","OwnerNumber":"Owner1","OwnerName":"Steven Trigoboff","OwnerList":["Steven Trigoboff"]},{"DBA":"Corner Bar","Address":"9 Orchard St, New York, NY 10002","Class":"A","Latitude":"40.7149402","Longitude":"-73.992298","RecOpenYear":"2021","Seq":"2","img1":"https:\/\/raw.githubusercontent.com\/hsianghsi\/images\/main\/dimes360\/dimes360_Corner_Bar_1.jpg","img2":"https:\/\/raw.githubusercontent.com\/hsianghsi\/images\/main\/dimes360_full\/IMG_20231228_154807_022.jpg","OwnerNumber":"Owner5","OwnerName":"TOURBILLON9 LLC","OwnerList":["Ignacio Mattos","Neal Peskind","Michael Mullen","Orchard Street Restaurant Management LLC","TOURBILLON9 LLC"]},{"DBA":"Primo's","Address":"95 W Broadway, New York, NY 10007","Class":"C","Latitude":"40.7153573","Longitude":"-74.0092393","RecOpenYear":"2018","Seq":"1","img1":"","img2":"","OwnerNumber":"Owner9","OwnerName":"Teufik Radoncic","OwnerList":["Aisa Shelley","Adam Moonves","Mario Agrario","Victor Assaf","Gerald Barad","Mohammed Diab","Cindy Barad Elias","Fabio Pasquale Granato","Teufik Radoncic","Allan Wartski","Jay Wartski","Jerry Wartski","Tribeca Hotel LLC","Keren Holdings LLC"]},{"DBA":"Caf\u00e9 Altro Paradiso","Address":"234 Spring St, New York, NY 10013","Class":"C","Latitude":"40.7252617","Longitude":"-74.0036021","RecOpenYear":"2016","Seq":"1","img1":"","img2":"","OwnerNumber":"Owner2","OwnerName":"Thomas Carter","OwnerList":["Ignacio Mattos","Thomas Carter"]},{"DBA":"Bar Belly","Address":"14 Orchard St, New York, NY 10002","Class":"A","Latitude":"40.71514056","Longitude":"-73.9916666","RecOpenYear":"2013","Seq":"1","img1":"","img2":"","OwnerNumber":"Owner6","OwnerName":"Toby Graham","OwnerList":["Benjamin Towill","Philip Winser","Tommy Mendes","Mauricio Melo","Annabel Bates","Toby Graham","John Shimkus"]},{"DBA":"Bar Belly","Address":"14 Orchard St, New York, NY 10002","Class":"A","Latitude":"40.71514056","Longitude":"-73.9916666","RecOpenYear":"2013","Seq":"1","img1":"","img2":"","OwnerNumber":"Owner3","OwnerName":"Tommy Mendes","OwnerList":["Benjamin Towill","Philip Winser","Tommy Mendes","Mauricio Melo","Annabel Bates","Toby Graham","John Shimkus"]},{"DBA":"Carlota","Address":"14A Orchard St, New York, NY 10002","Class":"A","Latitude":"40.715019","Longitude":"-73.991687","RecOpenYear":"2023","Seq":"1","img1":"","img2":"","OwnerNumber":"Owner1","OwnerName":"Tommy Mendes","OwnerList":["Tommy Mendes","Mauricio Melo","Alfredo Avilla"]},{"DBA":"The Orchard Townhouse","Address":"242 10th Ave, New York, NY 10001","Class":"C","Latitude":"40.7483879","Longitude":"-74.003439","RecOpenYear":"2019","Seq":"1","img1":"","img2":"","OwnerNumber":"Owner5","OwnerName":"Trevor Stahelski","OwnerList":["Philip Winser","Jeffrey Bogino","Natalie Freihon","Michael Navarette","Trevor Stahelski","Michelle Watanabe"]},{"DBA":"Primo's","Address":"95 W Broadway, New York, NY 10007","Class":"C","Latitude":"40.7153573","Longitude":"-74.0092393","RecOpenYear":"2018","Seq":"1","img1":"","img2":"","OwnerNumber":"Owner13","OwnerName":"Tribeca Hotel LLC","OwnerList":["Aisa Shelley","Adam Moonves","Mario Agrario","Victor Assaf","Gerald Barad","Mohammed Diab","Cindy Barad Elias","Fabio Pasquale Granato","Teufik Radoncic","Allan Wartski","Jay Wartski","Jerry Wartski","Tribeca Hotel LLC","Keren Holdings LLC"]},{"DBA":"Primo's","Address":"95 W Broadway, New York, NY 10007","Class":"C","Latitude":"40.7153573","Longitude":"-74.0092393","RecOpenYear":"2018","Seq":"1","img1":"","img2":"","OwnerNumber":"Owner4","OwnerName":"Victor Assaf","OwnerList":["Aisa Shelley","Adam Moonves","Mario Agrario","Victor Assaf","Gerald Barad","Mohammed Diab","Cindy Barad Elias","Fabio Pasquale Granato","Teufik Radoncic","Allan Wartski","Jay Wartski","Jerry Wartski","Tribeca Hotel LLC","Keren Holdings LLC"]},{"DBA":"Wu's Wonton King","Address":"165 E Broadway, New York, NY 10002","Class":"A","Latitude":"40.7139189","Longitude":"-73.989957","RecOpenYear":"2016","Seq":"1","img1":"","img2":"","OwnerNumber":"Owner1","OwnerName":"Yongzan Wu","OwnerList":["Yongzan Wu"]},{"DBA":"Cocoron Market","Address":"61 Delancey St, New York, NY 10002","Class":"B","Latitude":"40.7191095","Longitude":"-73.9908638","RecOpenYear":"2011","Seq":"1","img1":"","img2":"","OwnerNumber":"Owner1","OwnerName":"Yoshihito Kida","OwnerList":["Yoshihito Kida","Namgyal Gurung","Mika Ohie"]},{"DBA":"Cocoron","Address":"16 Delancey St, New York, NY 10002","Class":"C","Latitude":"40.72031275","Longitude":"-73.99304914","RecOpenYear":"2017","Seq":"1","img1":"","img2":"","OwnerNumber":"Owner1","OwnerName":"Yoshihito Kida","OwnerList":["Yoshihito Kida","Namgyal Gurung"]},{"DBA":"Shabushabu Mayumon","Address":"115 Division St, New York, NY 10002","Class":"A","Latitude":"40.7142841","Longitude":"-73.992066","RecOpenYear":"2019","Seq":"1","img1":"","img2":"","OwnerNumber":"Owner1","OwnerName":"Yoshihito Kida","OwnerList":["Yoshihito Kida","Mayu Kanatani"]},{"DBA":"The River","Address":"102 Bayard St, New York, NY 10013","Class":"C","Latitude":"40.7161999","Longitude":"-73.99969235","RecOpenYear":"2022","Seq":"1","img1":"https:\/\/raw.githubusercontent.com\/hsianghsi\/images\/main\/dimes360\/dimes360_The_River_3.jpg","img2":"https:\/\/raw.githubusercontent.com\/hsianghsi\/images\/main\/dimes360_full\/IMG_20231228_154108_408.jpg","OwnerNumber":"Owner5","OwnerName":"Yudai Kanayama","OwnerList":["Aaron Aujla","Benjamin Bloomstein","Emily Adams Bode","David Komurek","Yudai Kanayama","Keisuke Kasagi"]},{"DBA":"Alphabet City Brewing Co.","Address":"96 Loisaida Ave, New York, NY 10009","Class":"C","Latitude":"40.72368258","Longitude":"-73.9789504","RecOpenYear":"2012","Seq":"1","img1":"","img2":"","OwnerNumber":"Owner4","OwnerName":"Zachary Mack","OwnerList":["Jeffrey Simon","Jason Yarusi","David Hitchner","Zachary Mack"]}]