[{"DBA":"AUJLA'S INDIAN COFFEE HOUSE","Address":"56 Hester St, New York, NY 10002","Class":"A","Latitude":"40.71573885","Longitude":"-73.99081476","RecOpenYear":"2021","Seq":"1","img1":"https:\/\/github.com\/hsianghsi\/images\/blob\/main\/dimes360\/dimes360_AUJLA.jpg","img2":"https:\/\/raw.githubusercontent.com\/hsianghsi\/images\/blob\/main\/dimes360_full\/IMG_20231227_220457_268.jpg","OwnerNumber":"Owner2","OwnerName":"Aaron Aujla"},{"DBA":"The River","Address":"102 Bayard St, New York, NY 10013","Class":"C","Latitude":"40.7161999","Longitude":"-73.99969235","RecOpenYear":"2022","Seq":"1","img1":"https:\/\/github.com\/hsianghsi\/images\/blob\/main\/dimes360\/dimes360_The_River_3.jpg","img2":"https:\/\/raw.githubusercontent.com\/hsianghsi\/images\/blob\/main\/dimes360_full\/IMG_20231227_220457_268.jpg","OwnerNumber":"Owner1","OwnerName":"Aaron Aujla"},{"DBA":"Black Cat LES","Address":"172 Rivington St, New York, NY, 10002","Class":"C","Latitude":"40.7190103","Longitude":"-73.9845737","RecOpenYear":"2016","Seq":"1","img1":"","img2":"","OwnerNumber":"Owner1","OwnerName":"Aaron Ho"},{"DBA":"Sour Mouse","Address":"110 Delancey St, New York, NY, 10002","Class":"B","Latitude":"40.71788733","Longitude":"-73.98519538","RecOpenYear":"2020","Seq":"1","img1":"","img2":"","OwnerNumber":"Owner1","OwnerName":"Aaron Ho"},{"DBA":"Williamsburg Pizza Union Avenue","Address":"265 Union Ave, Brooklyn, NY 11211","Class":"C","Latitude":"40.7081077","Longitude":"-73.9508028","RecOpenYear":"2012","Seq":"1","img1":"","img2":"","OwnerNumber":"Owner2","OwnerName":"Aaron McCann"},{"DBA":"Williamsburg Pizza Lower East Side","Address":"277 Broome St, New York, NY 10002","Class":"B","Latitude":"40.7183066","Longitude":"-73.9911416","RecOpenYear":"2014","Seq":"1","img1":"","img2":"","OwnerNumber":"Owner2","OwnerName":"Aaron McCann"},{"DBA":"Williamsburg Pizza Upper East Side","Address":"1617 2nd Ave, New York, NY 10028","Class":"C","Latitude":"40.776492","Longitude":"-73.952878","RecOpenYear":"2019","Seq":"1","img1":"","img2":"","OwnerNumber":"Owner2","OwnerName":"Aaron McCann"},{"DBA":"Williamsburg Pizza Bushwick","Address":"259 Wyckoff Ave, Brooklyn, NY 11237","Class":"C","Latitude":"40.7014432","Longitude":"-73.91414753","RecOpenYear":"2022","Seq":"1","img1":"","img2":"","OwnerNumber":"Owner2","OwnerName":"Aaron McCann"},{"DBA":"BETTY","Address":"193 Henry St, New York, NY 10002","Class":"B","Latitude":"40.7137526","Longitude":"-73.9878622","RecOpenYear":"2022","Seq":"1","img1":"","img2":"","OwnerNumber":"Owner1","OwnerName":"Abigail Hitchcock"},{"DBA":"Forgtmenot","Address":"138 Division St, New York, NY 10002","Class":"A","Latitude":"40.7145711","Longitude":"-73.9915376","RecOpenYear":"2012","Seq":"1","img1":"https:\/\/github.com\/hsianghsi\/images\/blob\/main\/dimes360\/dimes360_FMN_3.jpg","img2":"https:\/\/raw.githubusercontent.com\/hsianghsi\/images\/blob\/main\/dimes360_full\/IMG_20231227_220457_268.jpg","OwnerNumber":"Owner1","OwnerName":"Abigail Sierros"},{"DBA":"VIRGO New York","Address":"324 Grand St, New York, NY 10002","Class":"B","Latitude":"40.7171723","Longitude":"-73.9903187","RecOpenYear":"2022","Seq":"1","img1":"","img2":"","OwnerNumber":"Owner4","OwnerName":"Abraham Khalili"},{"DBA":"Oma Grassa","Address":"753 Fulton St, Brooklyn, NY 11217","Class":"C","Latitude":"40.6865517","Longitude":"-73.9746741","RecOpenYear":"2022","Seq":"1","img1":"","img2":"","OwnerNumber":"Owner2","OwnerName":"Adam Baumgart"},{"DBA":"The Garret","Address":"296 Bleecker St, New York, NY 10014","Class":"C","Latitude":"40.7323251","Longitude":"-74.0038428","RecOpenYear":"2014","Seq":"2","img1":"","img2":"","OwnerNumber":"Owner3","OwnerName":"Adam Fulton"},{"DBA":"The Garret East","Address":"206 Avenue A, New York, NY 10009","Class":"C","Latitude":"40.7294825","Longitude":"-73.9807969","RecOpenYear":"2015","Seq":"1","img1":"","img2":"","OwnerNumber":"Owner3","OwnerName":"Adam Fulton"},{"DBA":"The Granddaddy","Address":"290 Grand St, New York, NY 10002","Class":"B","Latitude":"40.7177448","Longitude":"-73.9920297","RecOpenYear":"2018","Seq":"1","img1":"","img2":"","OwnerNumber":"Owner2","OwnerName":"Adam Greenberg"},{"DBA":"Mr. Fong's","Address":"40 Market St, New York, NY 10002","Class":"B","Latitude":"40.7124273","Longitude":"-73.9942509","RecOpenYear":"2015","Seq":"1","img1":"https:\/\/github.com\/hsianghsi\/images\/blob\/main\/dimes360\/dimes360_Mr_Fongs_1.jpg","img2":"https:\/\/raw.githubusercontent.com\/hsianghsi\/images\/blob\/main\/dimes360_full\/IMG_20231227_220457_268.jpg","OwnerNumber":"Owner2","OwnerName":"Adam Moonves"},{"DBA":"Primo's","Address":"95 W Broadway, New York, NY 10007","Class":"C","Latitude":"40.7153573","Longitude":"-74.0092393","RecOpenYear":"2018","Seq":"1","img1":"","img2":"https:\/\/raw.githubusercontent.com\/hsianghsi\/images\/blob\/main\/dimes360_full\/IMG_20231227_220457_268.jpg","OwnerNumber":"Owner2","OwnerName":"Adam Moonves"},{"DBA":"Bacaro","Address":"136 Division St, New York, NY 10002","Class":"A","Latitude":"40.7145454","Longitude":"-73.9914975","RecOpenYear":"2007","Seq":"1","img1":"","img2":"","OwnerNumber":"Owner2","OwnerName":"Adam Shepard"},{"DBA":"The Ten Bells Brooklyn","Address":"65 Irving Ave, Brooklyn, NY 11237","Class":"C","Latitude":"40.70467705","Longitude":"-73.92385397","RecOpenYear":"2021","Seq":"1","img1":"","img2":"","OwnerNumber":"Owner1","OwnerName":"Adrien Angelvy"},{"DBA":"Le Crocodile","Address":"80 Wythe Avenue, Brooklyn, New York 11211 ","Class":"C","Latitude":"40.7219036","Longitude":"-73.9580608","RecOpenYear":"2020","Seq":"1","img1":"https:\/\/github.com\/hsianghsi\/images\/blob\/main\/dimes360\/dimes360_le_crocodile_1.jpg","img2":"https:\/\/raw.githubusercontent.com\/hsianghsi\/images\/blob\/main\/dimes360_full\/IMG_20231227_220457_268.jpg","OwnerNumber":"Owner4","OwnerName":"Aidan O'Neal"},{"DBA":"Bar Blondeau","Address":"80 Wythe Avenue, Brooklyn, New York 11211 ","Class":"C","Latitude":"40.7219036","Longitude":"-73.9580608","RecOpenYear":"2021","Seq":"1","img1":"https:\/\/github.com\/hsianghsi\/images\/blob\/main\/dimes360\/dimes360_bar_blondeau_4.jpg","img2":"https:\/\/raw.githubusercontent.com\/hsianghsi\/images\/blob\/main\/dimes360_full\/IMG_20231227_220457_268.jpg","OwnerNumber":"Owner2","OwnerName":"Aidan O'Neal"},{"DBA":"Mr. Fong's","Address":"40 Market St, New York, NY 10002","Class":"B","Latitude":"40.7124273","Longitude":"-73.9942509","RecOpenYear":"2015","Seq":"1","img1":"https:\/\/github.com\/hsianghsi\/images\/blob\/main\/dimes360\/dimes360_Mr_Fongs_1.jpg","img2":"https:\/\/raw.githubusercontent.com\/hsianghsi\/images\/blob\/main\/dimes360_full\/IMG_20231227_220457_268.jpg","OwnerNumber":"Owner1","OwnerName":"Aisa Shelley"},{"DBA":"Regina's Grocery","Address":"27 Orchard St, New York, NY 10002","Class":"A","Latitude":"40.71547867","Longitude":"-73.9916956","RecOpenYear":"2017","Seq":"1","img1":"https:\/\/github.com\/hsianghsi\/images\/blob\/main\/dimes360\/dimes360_reginas_1.jpg","img2":"https:\/\/raw.githubusercontent.com\/hsianghsi\/images\/blob\/main\/dimes360_full\/IMG_20231227_220457_268.jpg","OwnerNumber":"Owner2","OwnerName":"Aisa Shelley"},{"DBA":"Primo's","Address":"95 W Broadway, New York, NY 10007","Class":"C","Latitude":"40.7153573","Longitude":"-74.0092393","RecOpenYear":"2018","Seq":"1","img1":"","img2":"https:\/\/raw.githubusercontent.com\/hsianghsi\/images\/blob\/main\/dimes360_full\/IMG_20231227_220457_268.jpg","OwnerNumber":"Owner1","OwnerName":"Aisa Shelley"},{"DBA":"Casino","Address":"171 E Broadway, New York, NY 10002","Class":"A","Latitude":"40.7139367","Longitude":"-73.9896705","RecOpenYear":"2022","Seq":"2","img1":"https:\/\/github.com\/hsianghsi\/images\/blob\/main\/dimes360\/dimes360_Casino_1.jpg","img2":"https:\/\/raw.githubusercontent.com\/hsianghsi\/images\/blob\/main\/dimes360_full\/IMG_20231227_220457_268.jpg","OwnerNumber":"Owner1","OwnerName":"Aisa Shelley"},{"DBA":"Casetta","Address":"61 Hester St, New York, NY 10002","Class":"A","Latitude":"40.71582113","Longitude":"-73.99035081","RecOpenYear":"2023","Seq":"1","img1":"https:\/\/github.com\/hsianghsi\/images\/blob\/main\/dimes360\/dimes360_Casetta_4.jpg","img2":"https:\/\/raw.githubusercontent.com\/hsianghsi\/images\/blob\/main\/dimes360_full\/IMG_20231227_220457_268.jpg","OwnerNumber":"Owner1","OwnerName":"Aisa Shelley"},{"DBA":"Diller","Address":"357a Grand St, New York, NY 10002","Class":"B","Latitude":"40.71648905","Longitude":"-73.98902728","RecOpenYear":"2019","Seq":"1","img1":"","img2":"","OwnerNumber":"Owner2","OwnerName":"Alan Kaufman"},{"DBA":"Frankel\u2019s Deli","Address":"631 Manhattan Ave, Brooklyn, NY 11222","Class":"C","Latitude":"40.7239127","Longitude":"-73.9510094","RecOpenYear":"2016","Seq":"1","img1":"","img2":"","OwnerNumber":"Owner2","OwnerName":"Alec Reinstein"},{"DBA":"Time Caf\u00e9","Address":"105 Canal St, New York, NY 10002","Class":"B","Latitude":"40.7156747","Longitude":"-73.9940649","RecOpenYear":"2022","Seq":"1","img1":"","img2":"","OwnerNumber":"Owner2","OwnerName":"Alec Reinstein"},{"DBA":"The Delancy","Address":"168 Delancey St, New York, NY 10002","Class":"C","Latitude":"40.7180017","Longitude":"-73.98528934","RecOpenYear":"2004","Seq":"1","img1":"","img2":"","OwnerNumber":"Owner1","OwnerName":"Aleksandra Drozd"},{"DBA":"The DL \/ Dinner on Ludlow","Address":"95 Delancey St, New York, NY 10002","Class":"B","Latitude":"40.7186318","Longitude":"-73.9893489","RecOpenYear":"2012","Seq":"1","img1":"","img2":"","OwnerNumber":"Owner1","OwnerName":"Aleksandra Drozd"},{"DBA":"The Flower Shop","Address":"107 Eldridge St, New York, NY 10002","Class":"B","Latitude":"40.718113","Longitude":"-73.9922837","RecOpenYear":"2017","Seq":"1","img1":"","img2":"","OwnerNumber":"Owner12","OwnerName":"Alex Schaffel"},{"DBA":"Ferry Boat Inn","Address":"Helford Passage, Falmouth TR11 5LB, United Kingdom","Class":"D","Latitude":"50.10042068","Longitude":"-5.1287846","RecOpenYear":"2017","Seq":"1","img1":"","img2":"","OwnerNumber":"Owner3","OwnerName":"Alex Towill"},{"DBA":"La Contenta","Address":"102 Norfolk St, New York, NY, 10002","Class":"B","Latitude":"40.718774","Longitude":"-73.9870405","RecOpenYear":"2015","Seq":"1","img1":"","img2":"","OwnerNumber":"Owner2","OwnerName":"Alex Valencia"},{"DBA":"Frankel\u2019s Deli","Address":"631 Manhattan Ave, Brooklyn, NY 11222","Class":"C","Latitude":"40.7239127","Longitude":"-73.9510094","RecOpenYear":"2016","Seq":"1","img1":"","img2":"","OwnerNumber":"Owner3","OwnerName":"Alex and Zach Frankel"},{"DBA":"Mehanata Bulgarian Bar","Address":"113 Ludlow St, New York, NY 10002","Class":"B","Latitude":"40.719468","Longitude":"-73.9888217","RecOpenYear":"2006","Seq":"1","img1":"","img2":"","OwnerNumber":"Owner1","OwnerName":"Alexander Dimitrov"},{"DBA":"Metrograph Commissary","Address":"7 Ludlow St, New York, NY 10002","Class":"A","Latitude":"40.7150926","Longitude":"-73.9911357","RecOpenYear":"2016","Seq":"1","img1":"https:\/\/github.com\/hsianghsi\/images\/blob\/main\/dimes360\/dimes360_Metrograph_2.jpg","img2":"","OwnerNumber":"Owner1","OwnerName":"Alexander Olch"},{"DBA":"The Butcher's Daughter","Address":"19 Kenmare St, New York, NY 10012","Class":"C","Latitude":"40.7207158","Longitude":"-73.9947851","RecOpenYear":"2012","Seq":"1","img1":"","img2":"","OwnerNumber":"Owner7","OwnerName":"Alexandra Cilla Pyke"},{"DBA":"Ernesto's","Address":"259 E Broadway, New York, NY, 10002","Class":"B","Latitude":"40.7143275","Longitude":"-73.9854479","RecOpenYear":"2021","Seq":"1","img1":"","img2":"","OwnerNumber":"Owner2","OwnerName":"Alexandra Niakani"},{"DBA":"Carlota","Address":"14A Orchard St, New York, NY 10002","Class":"A","Latitude":"40.715019","Longitude":"-73.991687","RecOpenYear":"2023","Seq":"1","img1":"","img2":"","OwnerNumber":"Owner3","OwnerName":"Alfredo Avilla"},{"DBA":"Dimes","Address":"49 Canal St, New York, NY 10002","Class":"A","Latitude":"40.7149354","Longitude":"-73.9915654","RecOpenYear":"2015","Seq":"1","img1":"https:\/\/github.com\/hsianghsi\/images\/blob\/main\/dimes360\/dimes360_dimes_1.jpg","img2":"","OwnerNumber":"Owner2","OwnerName":"Alissa Wagner"},{"DBA":"Dimes Deli","Address":"143 Division St, New York, NY 10002","Class":"A","Latitude":"40.714439","Longitude":"-73.9908127","RecOpenYear":"2015","Seq":"2","img1":"https:\/\/github.com\/hsianghsi\/images\/blob\/main\/dimes360\/dimes360_Dimes_Deli_2.jpg","img2":"","OwnerNumber":"Owner2","OwnerName":"Alissa Wagner"},{"DBA":"Primo's","Address":"95 W Broadway, New York, NY 10007","Class":"C","Latitude":"40.7153573","Longitude":"-74.0092393","RecOpenYear":"2018","Seq":"1","img1":"","img2":"https:\/\/raw.githubusercontent.com\/hsianghsi\/images\/blob\/main\/dimes360_full\/IMG_20231227_220457_268.jpg","OwnerNumber":"Owner10","OwnerName":"Allan Wartski"},{"DBA":"Davelle","Address":"102 Suffolk St, New York, NY 10002","Class":"C","Latitude":"40.7185107","Longitude":"-73.9862303","RecOpenYear":"2018","Seq":"1","img1":"","img2":"","OwnerNumber":"Owner5","OwnerName":"Allen Liu"},{"DBA":"Dirt Candy","Address":"86 Allen St, New York, NY 10002","Class":"B","Latitude":"40.7178731","Longitude":"-73.9907212","RecOpenYear":"2015","Seq":"1","img1":"","img2":"","OwnerNumber":"Owner1","OwnerName":"Amanda Cohen"},{"DBA":"Chick N' Hawk","Address":"145 Leucadia Blvd, Encinitas, CA 92024","Class":"D","Latitude":"33.06450972","Longitude":"-117.3009648","RecOpenYear":"2021","Seq":"1","img1":"","img2":"","OwnerNumber":"Owner3","OwnerName":"Andrew Bachelier"},{"DBA":"Caf\u00e9 Katja","Address":"79 Orchard St, New York, NY 10002","Class":"B","Latitude":"40.71772148","Longitude":"-73.99059678","RecOpenYear":"2007","Seq":"1","img1":"","img2":"","OwnerNumber":"Owner2","OwnerName":"Andrew Chase"},{"DBA":"Chick N' Hawk","Address":"145 Leucadia Blvd, Encinitas, CA 92024","Class":"D","Latitude":"33.06450972","Longitude":"-117.3009648","RecOpenYear":"2021","Seq":"1","img1":"","img2":"","OwnerNumber":"Owner2","OwnerName":"Andrew James"},{"DBA":"Chinese Tuxedo; Peachy's","Address":"5 Doyers St, New York, NY 10013","Class":"B","Latitude":"40.7143387","Longitude":"-73.9980744","RecOpenYear":"2016","Seq":"1","img1":"","img2":"","OwnerNumber":"Owner2","OwnerName":"Andrew Lam"},{"DBA":"The Tyger","Address":"1 Howard St, New York, NY 10013","Class":"C","Latitude":"40.7188128","Longitude":"-73.9995074","RecOpenYear":"2021","Seq":"1","img1":"","img2":"","OwnerNumber":"Owner4","OwnerName":"Andrew Lam"},{"DBA":"Eastwood","Address":"200 Clinton St, New York, NY, 10002","Class":"B","Latitude":"40.7140975","Longitude":"-73.9870616","RecOpenYear":"2013","Seq":"1","img1":"","img2":"","OwnerNumber":"Owner2","OwnerName":"Andrew States"},{"DBA":"The Dancer","Address":"202 Clinton St, New York, NY, 10002","Class":"B","Latitude":"40.713996","Longitude":"-73.9870459","RecOpenYear":"2018","Seq":"1","img1":"","img2":"","OwnerNumber":"Owner2","OwnerName":"Andrew States"},{"DBA":"Mary's Newtown","Address":"6 Mary St, Newtown NSW 2042, Australia","Class":"D","Latitude":"-33.8957119","Longitude":"151.179731","RecOpenYear":"2013","Seq":"1","img1":"","img2":"","OwnerNumber":"Owner4","OwnerName":"Andromeda Neale"},{"DBA":"Essex Pearl","Address":"115 Delancey St, New York, NY 10002","Class":"B","Latitude":"40.7181774","Longitude":"-73.9877719","RecOpenYear":"2019","Seq":"1","img1":"","img2":"","OwnerNumber":"Owner3","OwnerName":"Andy Jin"},{"DBA":"Gunbae","Address":"67 Murray St, New York, NY 10007","Class":"C","Latitude":"40.7146524","Longitude":"-74.0102518","RecOpenYear":"2015","Seq":"1","img1":"","img2":"","OwnerNumber":"Owner4","OwnerName":"Andy Lau"},{"DBA":"NOREE","Address":"274 Grand Street, New York, NY 10002","Class":"B","Latitude":"40.7180633","Longitude":"-73.9927397","RecOpenYear":"2018","Seq":"1","img1":"","img2":"","OwnerNumber":"Owner3","OwnerName":"Andy Lau"},{"DBA":"Somm Time","Address":"254 Broome St, New York, NY 10002","Class":"B","Latitude":"40.71820635","Longitude":"-73.98992024","RecOpenYear":"2020","Seq":"1","img1":"","img2":"","OwnerNumber":"Owner3","OwnerName":"Angie Berry"},{"DBA":"Bar Belly","Address":"14 Orchard St, New York, NY 10002","Class":"A","Latitude":"40.71514056","Longitude":"-73.9916666","RecOpenYear":"2013","Seq":"1","img1":"","img2":"https:\/\/raw.githubusercontent.com\/hsianghsi\/images\/blob\/main\/dimes360_full\/IMG_20231227_220457_268.jpg","OwnerNumber":"Owner3","OwnerName":"Annabel Bates"},{"DBA":"Una Pizza Napoletana","Address":"175 Orchard St, New York, NY 10002","Class":"C","Latitude":"40.7217237","Longitude":"-73.9885108","RecOpenYear":"2022","Seq":"1","img1":"","img2":"","OwnerNumber":"Owner1","OwnerName":"Anthony Mangieri"},{"DBA":"VIRGO New York","Address":"324 Grand St, New York, NY 10002","Class":"B","Latitude":"40.7171723","Longitude":"-73.9903187","RecOpenYear":"2022","Seq":"1","img1":"","img2":"","OwnerNumber":"Owner6","OwnerName":"Arash Josh Rahmani"},{"DBA":"Oma Grassa","Address":"753 Fulton St, Brooklyn, NY 11217","Class":"C","Latitude":"40.6865517","Longitude":"-73.9746741","RecOpenYear":"2022","Seq":"1","img1":"","img2":"","OwnerNumber":"Owner3","OwnerName":"Arnaud Erhart"},{"DBA":"The Izakaya","Address":"326 E 6th St, New York, NY 10003","Class":"C","Latitude":"40.7267159","Longitude":"-73.9873384","RecOpenYear":"2015","Seq":"1","img1":"","img2":"","OwnerNumber":"Owner4","OwnerName":"Atsuki Yukawa"},{"DBA":"The Izakaya II","Address":"215 E 4th St, New York, NY 10009","Class":"C","Latitude":"40.7238098","Longitude":"-73.9834983","RecOpenYear":"2020","Seq":"1","img1":"","img2":"","OwnerNumber":"Owner4","OwnerName":"Atsuki Yukawa"},{"DBA":"Oma Grassa","Address":"753 Fulton St, Brooklyn, NY 11217","Class":"C","Latitude":"40.6865517","Longitude":"-73.9746741","RecOpenYear":"2022","Seq":"1","img1":"","img2":"","OwnerNumber":"Owner5","OwnerName":"Bea\u2019s Tavern Inc."},{"DBA":"Mary's Newtown","Address":"6 Mary St, Newtown NSW 2042, Australia","Class":"D","Latitude":"-33.8957119","Longitude":"151.179731","RecOpenYear":"2013","Seq":"1","img1":"","img2":"","OwnerNumber":"Owner5","OwnerName":"Ben Ingham"},{"DBA":"The Flower Shop","Address":"107 Eldridge St, New York, NY 10002","Class":"B","Latitude":"40.718113","Longitude":"-73.9922837","RecOpenYear":"2017","Seq":"1","img1":"","img2":"","OwnerNumber":"Owner9","OwnerName":"Ben Ingham"},{"DBA":"Dudley's","Address":"85 Orchard St, New York, NY 10002","Class":"B","Latitude":"40.7180663","Longitude":"-73.99044","RecOpenYear":"2012","Seq":"2","img1":"https:\/\/github.com\/hsianghsi\/images\/blob\/main\/dimes360\/dimes360_dudleys_3.jpg","img2":"https:\/\/raw.githubusercontent.com\/hsianghsi\/images\/blob\/main\/dimes360_full\/IMG_20231227_220457_268.jpg","OwnerNumber":"Owner4","OwnerName":"Benedict Dos Remedios"},{"DBA":"Dr Clark","Address":"104 Bayard St, New York, NY 10013","Class":"C","Latitude":"40.71620935","Longitude":"-73.99979042","RecOpenYear":"2020","Seq":"2","img1":"","img2":"","OwnerNumber":"Owner3","OwnerName":"Benedict dos Remedios"},{"DBA":"The River","Address":"102 Bayard St, New York, NY 10013","Class":"C","Latitude":"40.7161999","Longitude":"-73.99969235","RecOpenYear":"2022","Seq":"1","img1":"https:\/\/github.com\/hsianghsi\/images\/blob\/main\/dimes360\/dimes360_The_River_3.jpg","img2":"https:\/\/raw.githubusercontent.com\/hsianghsi\/images\/blob\/main\/dimes360_full\/IMG_20231227_220457_268.jpg","OwnerNumber":"Owner2","OwnerName":"Benjamin Bloomstein"},{"DBA":"Bar Belly","Address":"14 Orchard St, New York, NY 10002","Class":"A","Latitude":"40.71514056","Longitude":"-73.9916666","RecOpenYear":"2013","Seq":"1","img1":"","img2":"https:\/\/raw.githubusercontent.com\/hsianghsi\/images\/blob\/main\/dimes360_full\/IMG_20231227_220457_268.jpg","OwnerNumber":"Owner6","OwnerName":"Benjamin Towill"},{"DBA":"Ferry Boat Inn","Address":"Helford Passage, Falmouth TR11 5LB, United Kingdom","Class":"D","Latitude":"50.10042068","Longitude":"-5.1287846","RecOpenYear":"2017","Seq":"1","img1":"","img2":"","OwnerNumber":"Owner1","OwnerName":"Benjamin Towill"},{"DBA":"Basic Kitchen","Address":"82 Wentworth St, Charleston, SC 29401","Class":"D","Latitude":"32.782103","Longitude":"-79.935045","RecOpenYear":"2017","Seq":"2","img1":"","img2":"","OwnerNumber":"Owner1","OwnerName":"Benjamin Towill"},{"DBA":"Post House","Address":"101 Pitt St, Mt Pleasant, SC 29464, United States","Class":"D","Latitude":"32.786801","Longitude":"-79.876403","RecOpenYear":"2020","Seq":"1","img1":"","img2":"","OwnerNumber":"Owner1","OwnerName":"Benjamin Towill"},{"DBA":"Pho Grand","Address":"277 Grand St, New York, NY 10002","Class":"B","Latitude":"40.7177106","Longitude":"-73.9927632","RecOpenYear":"2002","Seq":"1","img1":"","img2":"","OwnerNumber":"Owner2","OwnerName":"Benny Chen"},{"DBA":"Pho Grand The Market Line","Address":"115 Delancey St, New York, NY 10002","Class":"B","Latitude":"40.7181774","Longitude":"-73.9877719","RecOpenYear":"2018","Seq":"1","img1":"","img2":"","OwnerNumber":"Owner1","OwnerName":"Benny Chen"},{"DBA":"Beverly\u2019s","Address":"297 Grand St, New York, NY 10002","Class":"A","Latitude":"40.7173895","Longitude":"-73.9920175","RecOpenYear":"2023","Seq":"1","img1":"","img2":"","OwnerNumber":"Owner1","OwnerName":"Beverly Nguyen"},{"DBA":"Mr. Fong's","Address":"40 Market St, New York, NY 10002","Class":"B","Latitude":"40.7124273","Longitude":"-73.9942509","RecOpenYear":"2015","Seq":"1","img1":"https:\/\/github.com\/hsianghsi\/images\/blob\/main\/dimes360\/dimes360_Mr_Fongs_1.jpg","img2":"https:\/\/raw.githubusercontent.com\/hsianghsi\/images\/blob\/main\/dimes360_full\/IMG_20231227_220457_268.jpg","OwnerNumber":"Owner7","OwnerName":"Blue Keilin LLC"},{"DBA":"The House of Machines Cape Town","Address":"84 Shortmarket St, Cape Town City Centre, Cape Town, 8000, South Africa","Class":"D","Latitude":"-33.9213225","Longitude":"18.4187713","RecOpenYear":"2015","Seq":"1","img1":"","img2":"","OwnerNumber":"Owner1","OwnerName":"Brad Armitage"},{"DBA":"The Flower Shop","Address":"107 Eldridge St, New York, NY 10002","Class":"B","Latitude":"40.718113","Longitude":"-73.9922837","RecOpenYear":"2017","Seq":"1","img1":"","img2":"","OwnerNumber":"Owner14","OwnerName":"Bradley Zipper"},{"DBA":"The Nolitan","Address":"153 Elizabeth St, New York, NY, 10012","Class":"C","Latitude":"40.7204454","Longitude":"-73.9951507","RecOpenYear":"2012","Seq":"1","img1":"","img2":"","OwnerNumber":"Owner2","OwnerName":"Brett Nidel"},{"DBA":"Motel Morris","Address":"132 7th Ave, New York, NY 10011","Class":"C","Latitude":"40.740988","Longitude":"-73.998035","RecOpenYear":"2017","Seq":"1","img1":"","img2":"","OwnerNumber":"Owner3","OwnerName":"Brett Nidel"},{"DBA":"Wayla","Address":"100 Forsyth St, New York, NY 10002","Class":"B","Latitude":"40.71826055","Longitude":"-73.9926389","RecOpenYear":"2019","Seq":"1","img1":"","img2":"","OwnerNumber":"Owner4","OwnerName":"Brett Nidel"},{"DBA":"Grey Lady","Address":"77 Delancey St, New York, NY 10002","Class":"B","Latitude":"40.7188615","Longitude":"-73.9902614","RecOpenYear":"2014","Seq":"1","img1":"","img2":"","OwnerNumber":"Owner2","OwnerName":"Callum McLaughlin"},{"DBA":"Mary's Newtown","Address":"6 Mary St, Newtown NSW 2042, Australia","Class":"D","Latitude":"-33.8957119","Longitude":"151.179731","RecOpenYear":"2013","Seq":"1","img1":"","img2":"","OwnerNumber":"Owner3","OwnerName":"Campbell Duncan"},{"DBA":"The Flower Shop","Address":"107 Eldridge St, New York, NY 10002","Class":"B","Latitude":"40.718113","Longitude":"-73.9922837","RecOpenYear":"2017","Seq":"1","img1":"","img2":"","OwnerNumber":"Owner8","OwnerName":"Campbell Duncan"},{"DBA":"Dimes","Address":"49 Canal St, New York, NY 10002","Class":"A","Latitude":"40.7149354","Longitude":"-73.9915654","RecOpenYear":"2015","Seq":"1","img1":"https:\/\/github.com\/hsianghsi\/images\/blob\/main\/dimes360\/dimes360_dimes_1.jpg","img2":"","OwnerNumber":"Owner3","OwnerName":"Caroline Mascolo"},{"DBA":"Les Enfants de Boh\u00e8me","Address":"177 Henry St, New York, NY 10002","Class":"A","Latitude":"40.7136197","Longitude":"-73.9887706","RecOpenYear":"2015","Seq":"1","img1":"","img2":"","OwnerNumber":"Owner2","OwnerName":"Cathy Lang Ho"},{"DBA":"Copper Throat","Address":"123 Ludlow St, New York, NY 10002","Class":"B","Latitude":"40.7197786","Longitude":"-73.9886387","RecOpenYear":"2019","Seq":"1","img1":"","img2":"","OwnerNumber":"Owner1","OwnerName":"Chaiwat Wattalo"},{"DBA":"The Hudson House & Distillery","Address":"1835 Rte 9W, West Park, NY 12493","Class":"C","Latitude":"41.78474735","Longitude":"-73.958807","RecOpenYear":"2021","Seq":"1","img1":"","img2":"","OwnerNumber":"Owner2","OwnerName":"Charles Ferri"},{"DBA":"169 Bar","Address":"169 E Broadway, New York, NY 10002","Class":"A","Latitude":"40.7139326","Longitude":"-73.9897603","RecOpenYear":"2006","Seq":"1","img1":"","img2":"","OwnerNumber":"Owner1","OwnerName":"Charles Hanson"},{"DBA":"SUSHI HATSUNE","Address":"50 Eldridge St, New York, NY, 10002","Class":"B","Latitude":"40.71601815","Longitude":"-73.99279974","RecOpenYear":"2021","Seq":"1","img1":"","img2":"","OwnerNumber":"Owner1","OwnerName":"Chen Juan"},{"DBA":"Hwa Yuan Szechuan","Address":"42 E Broadway, New York, NY, 10002","Class":"B","Latitude":"40.7137082","Longitude":"-73.9959474","RecOpenYear":"2017","Seq":"1","img1":"","img2":"","OwnerNumber":"Owner1","OwnerName":"Chen Lieh Tang"},{"DBA":"Double Chicken Please","Address":"115 Allen St, New York, NY 10002","Class":"B","Latitude":"40.719613","Longitude":"-73.9906095","RecOpenYear":"2020","Seq":"1","img1":"","img2":"","OwnerNumber":"Owner1","OwnerName":"Chia-an Chan"},{"DBA":"Winnie\u2019s Bar","Address":"58 E Broadway 2nd fl, New York, NY 10002","Class":"B","Latitude":"40.71382276","Longitude":"-73.9953353","RecOpenYear":"2019","Seq":"1","img1":"","img2":"","OwnerNumber":"Owner1","OwnerName":"Ching Mei Mui"},{"DBA":"ADDA","Address":"31-31 Thomson Ave, Long Island City, NY 11101","Class":"C","Latitude":"40.7457495","Longitude":"-73.9399335","RecOpenYear":"2018","Seq":"1","img1":"","img2":"","OwnerNumber":"Owner2","OwnerName":"Chintan Pandya"},{"DBA":"Dhamaka","Address":"119 Delancey St, New York, NY 10002","Class":"B","Latitude":"40.718235","Longitude":"-73.9880781","RecOpenYear":"2021","Seq":"1","img1":"","img2":"","OwnerNumber":"Owner2","OwnerName":"Chintan Pandya"},{"DBA":"Semma","Address":"60 Greenwich Ave, New York, NY, 10011","Class":"C","Latitude":"40.736072","Longitude":"-74.000689","RecOpenYear":"2021","Seq":"2","img1":"","img2":"","OwnerNumber":"Owner2","OwnerName":"Chintan Pandya"},{"DBA":"VIRGO New York","Address":"324 Grand St, New York, NY 10002","Class":"B","Latitude":"40.7171723","Longitude":"-73.9903187","RecOpenYear":"2022","Seq":"1","img1":"","img2":"","OwnerNumber":"Owner3","OwnerName":"Christopher Horn"},{"DBA":"Saluggi's East","Address":"399 Grand St, New York, NY, 10002","Class":"B","Latitude":"40.7160067","Longitude":"-73.9874972","RecOpenYear":"2016","Seq":"1","img1":"","img2":"","OwnerNumber":"Owner1","OwnerName":"Christopher Keane"},{"DBA":"310 Bowery Bar","Address":"310 Bowery, New York, NY 10012","Class":"C","Latitude":"40.7249654","Longitude":"-73.9925829","RecOpenYear":"2015","Seq":"1","img1":"","img2":"","OwnerNumber":"Owner5","OwnerName":"Christopher Reda"},{"DBA":"Apotheke","Address":"9 Doyers St, New York, NY, 10013","Class":"B","Latitude":"40.7143873","Longitude":"-73.9981634","RecOpenYear":"2008","Seq":"1","img1":"","img2":"","OwnerNumber":"Owner2","OwnerName":"Christopher Tierney"},{"DBA":"Apotheke LA","Address":"1746 N Spring St, Los Angeles, CA 90012","Class":"D","Latitude":"34.070192","Longitude":"-118.2255342","RecOpenYear":"2018","Seq":"1","img1":"","img2":"","OwnerNumber":"Owner1","OwnerName":"Christopher Tierney"},{"DBA":"Apotheke NoMad","Address":"9 W 26th St, New York, NY 10010","Class":"C","Latitude":"40.7440098","Longitude":"-73.9891964","RecOpenYear":"2022","Seq":"2","img1":"","img2":"","OwnerNumber":"Owner1","OwnerName":"Christopher Tierney"},{"DBA":"Treasure Club","Address":"22 Orchard St, New York, NY 10002","Class":"A","Latitude":"40.7153775","Longitude":"-73.9915426","RecOpenYear":"2022","Seq":"1","img1":"","img2":"https:\/\/raw.githubusercontent.com\/hsianghsi\/images\/blob\/main\/dimes360_full\/IMG_20231227_220457_268.jpg","OwnerNumber":"Owner1","OwnerName":"Christopher Yerington"},{"DBA":"The Flower Shop","Address":"107 Eldridge St, New York, NY 10002","Class":"B","Latitude":"40.718113","Longitude":"-73.9922837","RecOpenYear":"2017","Seq":"1","img1":"","img2":"","OwnerNumber":"Owner11","OwnerName":"Christos Petranis"},{"DBA":"Golden Unicorn","Address":"16 E Broadway, New York, NY, 10002","Class":"B","Latitude":"40.7135972","Longitude":"-73.9971632","RecOpenYear":"1989","Seq":"1","img1":"","img2":"","OwnerNumber":"Owner1","OwnerName":"Chun Lam Cheng"},{"DBA":"Primo's","Address":"95 W Broadway, New York, NY 10007","Class":"C","Latitude":"40.7153573","Longitude":"-74.0092393","RecOpenYear":"2018","Seq":"1","img1":"","img2":"https:\/\/raw.githubusercontent.com\/hsianghsi\/images\/blob\/main\/dimes360_full\/IMG_20231227_220457_268.jpg","OwnerNumber":"Owner7","OwnerName":"Cindy Barad Elias"},{"DBA":"Prima Brooklyn","Address":"147 Greene Ave, Brooklyn, NY 11238","Class":"C","Latitude":"40.6868301","Longitude":"-73.96622158","RecOpenYear":"2022","Seq":"1","img1":"","img2":"","OwnerNumber":"Owner3","OwnerName":"Couch Capital LLC"},{"DBA":"Essex Pearl","Address":"115 Delancey St, New York, NY 10002","Class":"B","Latitude":"40.7181774","Longitude":"-73.9877719","RecOpenYear":"2019","Seq":"1","img1":"","img2":"","OwnerNumber":"Owner1","OwnerName":"Crystal Ang"},{"DBA":"The Grand Delancey","Address":"81 Norfolk St, New York, NY 10002","Class":"B","Latitude":"40.7177298","Longitude":"-73.9878188","RecOpenYear":"2019","Seq":"1","img1":"","img2":"","OwnerNumber":"Owner3","OwnerName":"DSA Phase 1 Beer Hall LLC"},{"DBA":"The Izakaya","Address":"326 E 6th St, New York, NY 10003","Class":"C","Latitude":"40.7267159","Longitude":"-73.9873384","RecOpenYear":"2015","Seq":"1","img1":"","img2":"","OwnerNumber":"Owner2","OwnerName":"Dai Watanabe"},{"DBA":"The Izakaya II","Address":"215 E 4th St, New York, NY 10009","Class":"C","Latitude":"40.7238098","Longitude":"-73.9834983","RecOpenYear":"2020","Seq":"1","img1":"","img2":"","OwnerNumber":"Owner2","OwnerName":"Dai Watanabe"},{"DBA":"Davelle","Address":"102 Suffolk St, New York, NY 10002","Class":"C","Latitude":"40.7185107","Longitude":"-73.9862303","RecOpenYear":"2018","Seq":"1","img1":"","img2":"","OwnerNumber":"Owner3","OwnerName":"Daichi Ishihara"},{"DBA":"Gunbae","Address":"67 Murray St, New York, NY 10007","Class":"C","Latitude":"40.7146524","Longitude":"-74.0102518","RecOpenYear":"2015","Seq":"1","img1":"","img2":"","OwnerNumber":"Owner6","OwnerName":"Dakota Petito"},{"DBA":"Prima Brooklyn","Address":"147 Greene Ave, Brooklyn, NY 11238","Class":"C","Latitude":"40.6868301","Longitude":"-73.96622158","RecOpenYear":"2022","Seq":"1","img1":"","img2":"","OwnerNumber":"Owner2","OwnerName":"Damany Weir"},{"DBA":"Dan and John's Wings EV","Address":"135 1st Ave, New York, NY 10003","Class":"C","Latitude":"40.7278427","Longitude":"-73.9853497","RecOpenYear":"2015","Seq":"1","img1":"","img2":"","OwnerNumber":"Owner2","OwnerName":"Daniel Borowski"},{"DBA":"Dan and John's Wings Murray Hill","Address":"439 3rd Ave, New York, NY 10016","Class":"C","Latitude":"40.7433947","Longitude":"-73.9795856","RecOpenYear":"2019","Seq":"1","img1":"","img2":"","OwnerNumber":"Owner2","OwnerName":"Daniel Borowski"},{"DBA":"Dan and John's Wings Chelsea","Address":"103 W 14th St, New York, NY 10011","Class":"C","Latitude":"40.7376976","Longitude":"-73.9972115","RecOpenYear":"2022","Seq":"1","img1":"","img2":"","OwnerNumber":"Owner2","OwnerName":"Daniel Borowski"},{"DBA":"Dan and John's Wings LES","Address":"115 Delancey St, New York, NY 10002","Class":"B","Latitude":"40.7181774","Longitude":"-73.9877719","RecOpenYear":"2023","Seq":"1","img1":"","img2":"","OwnerNumber":"Owner1","OwnerName":"Daniel Borowski"},{"DBA":"Mr. Fong's","Address":"40 Market St, New York, NY 10002","Class":"B","Latitude":"40.7124273","Longitude":"-73.9942509","RecOpenYear":"2015","Seq":"1","img1":"https:\/\/github.com\/hsianghsi\/images\/blob\/main\/dimes360\/dimes360_Mr_Fongs_1.jpg","img2":"https:\/\/raw.githubusercontent.com\/hsianghsi\/images\/blob\/main\/dimes360_full\/IMG_20231227_220457_268.jpg","OwnerNumber":"Owner6","OwnerName":"Daniel Gold"},{"DBA":"Dreamers Coffee House","Address":"54 Henry St, New York, NY 10002","Class":"B","Latitude":"40.7127687","Longitude":"-73.9952652","RecOpenYear":"2020","Seq":"1","img1":"","img2":"","OwnerNumber":"Owner2","OwnerName":"Daniel Lam"},{"DBA":"11th Street Bar","Address":"510 E 11th St, New York, NY 10009","Class":"C","Latitude":"40.7280415","Longitude":"-73.9812579","RecOpenYear":"2018","Seq":"1","img1":"","img2":"","OwnerNumber":"Owner3","OwnerName":"Daniel Sweeney"},{"DBA":"Megs Ale House","Address":"125 Bedford Ave, Brooklyn, NY 11211","Class":"C","Latitude":"40.7195263","Longitude":"-73.9557434","RecOpenYear":"2021","Seq":"1","img1":"","img2":"","OwnerNumber":"Owner3","OwnerName":"Daniel Sweeney"},{"DBA":"Barrio Chino","Address":"253 Broome St, New York, NY 10002","Class":"B","Latitude":"40.7179623","Longitude":"-73.9900046","RecOpenYear":"2002","Seq":"1","img1":"","img2":"","OwnerNumber":"Owner2","OwnerName":"Danny Minch"},{"DBA":"Peoples Wine Bar","Address":"115 Delancey St, New York, NY 10002","Class":"B","Latitude":"40.7181774","Longitude":"-73.9877719","RecOpenYear":"2019","Seq":"1","img1":"","img2":"","OwnerNumber":"Owner3","OwnerName":"Daryl Nuhn"},{"DBA":"Prima Brooklyn","Address":"147 Greene Ave, Brooklyn, NY 11238","Class":"C","Latitude":"40.6868301","Longitude":"-73.96622158","RecOpenYear":"2022","Seq":"1","img1":"","img2":"","OwnerNumber":"Owner1","OwnerName":"Daryl Nuhn"},{"DBA":"Randolph Beer","Address":"82 Prospect St, Brooklyn, NY 11201","Class":"C","Latitude":"40.700557","Longitude":"-73.98716067","RecOpenYear":"2015","Seq":"1","img1":"","img2":"","OwnerNumber":"Owner3","OwnerName":"Dave Plate"},{"DBA":"Maiden Lane","Address":"162 Avenue B, New York, NY 10009","Class":"C","Latitude":"40.7271258","Longitude":"-73.9798625","RecOpenYear":"2013","Seq":"1","img1":"","img2":"https:\/\/raw.githubusercontent.com\/hsianghsi\/images\/blob\/main\/dimes360_full\/IMG_20231227_220457_268.jpg","OwnerNumber":"Owner3","OwnerName":"David Drinkwater"},{"DBA":"Alphabet City Brewing Co.","Address":"96 Loisaida Ave, New York, NY 10009","Class":"C","Latitude":"40.72368258","Longitude":"-73.9789504","RecOpenYear":"2012","Seq":"1","img1":"","img2":"https:\/\/raw.githubusercontent.com\/hsianghsi\/images\/blob\/main\/dimes360_full\/IMG_20231227_220457_268.jpg","OwnerNumber":"Owner3","OwnerName":"David Hitchner"},{"DBA":"The River","Address":"102 Bayard St, New York, NY 10013","Class":"C","Latitude":"40.7161999","Longitude":"-73.99969235","RecOpenYear":"2022","Seq":"1","img1":"https:\/\/github.com\/hsianghsi\/images\/blob\/main\/dimes360\/dimes360_The_River_3.jpg","img2":"https:\/\/raw.githubusercontent.com\/hsianghsi\/images\/blob\/main\/dimes360_full\/IMG_20231227_220457_268.jpg","OwnerNumber":"Owner4","OwnerName":"David Komurek"},{"DBA":"The Butcher's Daughter Williamsburg","Address":"271 Metropolitan Ave, Brooklyn, NY 11211","Class":"C","Latitude":"40.7148577","Longitude":"-73.9584597","RecOpenYear":"2019","Seq":"1","img1":"","img2":"","OwnerNumber":"Owner4","OwnerName":"David Ochoa Rodriguez"},{"DBA":"The Flower Shop","Address":"107 Eldridge St, New York, NY 10002","Class":"B","Latitude":"40.718113","Longitude":"-73.9922837","RecOpenYear":"2017","Seq":"1","img1":"","img2":"","OwnerNumber":"Owner5","OwnerName":"David Tisch"},{"DBA":"Ernesto's","Address":"259 E Broadway, New York, NY, 10002","Class":"B","Latitude":"40.7143275","Longitude":"-73.9854479","RecOpenYear":"2021","Seq":"1","img1":"","img2":"","OwnerNumber":"Owner3","OwnerName":"Davitta Niakani"},{"DBA":"Semma","Address":"60 Greenwich Ave, New York, NY, 10011","Class":"C","Latitude":"40.736072","Longitude":"-74.000689","RecOpenYear":"2021","Seq":"2","img1":"","img2":"","OwnerNumber":"Owner3","OwnerName":"Debabrata Mazumdar"},{"DBA":"The Garret East","Address":"206 Avenue A, New York, NY 10009","Class":"C","Latitude":"40.7294825","Longitude":"-73.9807969","RecOpenYear":"2015","Seq":"1","img1":"","img2":"","OwnerNumber":"Owner5","OwnerName":"Den II LLC"},{"DBA":"The Garret","Address":"296 Bleecker St, New York, NY 10014","Class":"C","Latitude":"40.7323251","Longitude":"-74.0038428","RecOpenYear":"2014","Seq":"2","img1":"","img2":"","OwnerNumber":"Owner5","OwnerName":"Den LLC"},{"DBA":"Kiki's","Address":"130 Division St, New York, NY 10002","Class":"A","Latitude":"40.7145315","Longitude":"-73.9919097","RecOpenYear":"2015","Seq":"1","img1":"https:\/\/github.com\/hsianghsi\/images\/blob\/main\/dimes360\/dimes360_Kiki_2.jpg","img2":"https:\/\/raw.githubusercontent.com\/hsianghsi\/images\/blob\/main\/dimes360_full\/IMG_20231227_220457_268.jpg","OwnerNumber":"Owner3","OwnerName":"Derek Tighe"},{"DBA":"Kiki's Grill and Rotisserie","Address":"121 Division St, New York, NY 10002","Class":"A","Latitude":"40.7143643","Longitude":"-73.9918059","RecOpenYear":"2019","Seq":"1","img1":"","img2":"https:\/\/raw.githubusercontent.com\/hsianghsi\/images\/blob\/main\/dimes360_full\/IMG_20231227_220457_268.jpg","OwnerNumber":"Owner3","OwnerName":"Derek Tighe"},{"DBA":"Happy Garden Palace","Address":"54 E Broadway, New York, NY 10002","Class":"B","Latitude":"40.71374815","Longitude":"-73.99547565","RecOpenYear":"2008","Seq":"1","img1":"","img2":"","OwnerNumber":"Owner1","OwnerName":"Dian Lin"},{"DBA":"Sticky Rice","Address":"87 Orchard St, New York, NY 10002","Class":"B","Latitude":"40.71797585","Longitude":"-73.9904865","RecOpenYear":"2006","Seq":"1","img1":"","img2":"","OwnerNumber":"Owner1","OwnerName":"Diane Wongprasert"},{"DBA":"Lucky Jack's","Address":"129 Orchard St, New York, NY 10002","Class":"B","Latitude":"40.7196683","Longitude":"-73.9895479","RecOpenYear":"2004","Seq":"1","img1":"","img2":"","OwnerNumber":"Owner1","OwnerName":"Diarmuid Joye"},{"DBA":"Donnybrook","Address":"35 Clinton St, New York, NY 10002","Class":"C","Latitude":"40.72019","Longitude":"-73.984615","RecOpenYear":"2008","Seq":"1","img1":"","img2":"","OwnerNumber":"Owner1","OwnerName":"Diarmuid Joye"},{"DBA":"Blue Haven","Address":"108 W Houston St, New York, NY 10012","Class":"C","Latitude":"40.7275723","Longitude":"-74.0005549","RecOpenYear":"2010","Seq":"1","img1":"","img2":"","OwnerNumber":"Owner1","OwnerName":"Diarmuid Joye"},{"DBA":"11th Street Bar","Address":"510 E 11th St, New York, NY 10009","Class":"C","Latitude":"40.7280415","Longitude":"-73.9812579","RecOpenYear":"2018","Seq":"1","img1":"","img2":"","OwnerNumber":"Owner1","OwnerName":"Diarmuid Joye"},{"DBA":"Megs Ale House","Address":"125 Bedford Ave, Brooklyn, NY 11211","Class":"C","Latitude":"40.7195263","Longitude":"-73.9557434","RecOpenYear":"2021","Seq":"1","img1":"","img2":"","OwnerNumber":"Owner1","OwnerName":"Diarmuid Joye"},{"DBA":"Public Records","Address":"233 Butler St, Brooklyn, NY 11217","Class":"C","Latitude":"40.6821013","Longitude":"-73.9865223","RecOpenYear":"2019","Seq":"1","img1":"","img2":"","OwnerNumber":"Owner4","OwnerName":"Diego Martinelli"},{"DBA":"Kodawari Coffee","Address":"100 Forsyth St, New York, NY 10002","Class":"B","Latitude":"40.71826055","Longitude":"-73.9926389","RecOpenYear":"2018","Seq":"1","img1":"","img2":"","OwnerNumber":"Owner2","OwnerName":"Doron Wong"},{"DBA":"Wayla","Address":"100 Forsyth St, New York, NY 10002","Class":"B","Latitude":"40.71826055","Longitude":"-73.9926389","RecOpenYear":"2019","Seq":"1","img1":"","img2":"","OwnerNumber":"Owner2","OwnerName":"Doron Wong"},{"DBA":"Kimika","Address":"40 Kenmare St, New York, NY 10012","Class":"C","Latitude":"40.720835","Longitude":"-73.9953165","RecOpenYear":"2020","Seq":"1","img1":"","img2":"","OwnerNumber":"Owner2","OwnerName":"Doron Wong"},{"DBA":"Dr Clark","Address":"104 Bayard St, New York, NY 10013","Class":"C","Latitude":"40.71620935","Longitude":"-73.99979042","RecOpenYear":"2020","Seq":"2","img1":"","img2":"","OwnerNumber":"Owner6","OwnerName":"Dr Clark LLC"},{"DBA":"The House of Machines Cape Town","Address":"84 Shortmarket St, Cape Town City Centre, Cape Town, 8000, South Africa","Class":"D","Latitude":"-33.9213225","Longitude":"18.4187713","RecOpenYear":"2015","Seq":"1","img1":"","img2":"","OwnerNumber":"Owner3","OwnerName":"Drew Madacsi"},{"DBA":"VIRGO New York","Address":"324 Grand St, New York, NY 10002","Class":"B","Latitude":"40.7171723","Longitude":"-73.9903187","RecOpenYear":"2022","Seq":"1","img1":"","img2":"","OwnerNumber":"Owner1","OwnerName":"Duncan Abdelnour"},{"DBA":"Barrio Chino","Address":"253 Broome St, New York, NY 10002","Class":"B","Latitude":"40.7179623","Longitude":"-73.9900046","RecOpenYear":"2002","Seq":"1","img1":"","img2":"","OwnerNumber":"Owner1","OwnerName":"Dylan Dodd"},{"DBA":"Randolph Beer","Address":"82 Prospect St, Brooklyn, NY 11201","Class":"C","Latitude":"40.700557","Longitude":"-73.98716067","RecOpenYear":"2015","Seq":"1","img1":"","img2":"","OwnerNumber":"Owner1","OwnerName":"Dylan Hales"},{"DBA":"The Flower Shop","Address":"107 Eldridge St, New York, NY 10002","Class":"B","Latitude":"40.718113","Longitude":"-73.9922837","RecOpenYear":"2017","Seq":"1","img1":"","img2":"","OwnerNumber":"Owner2","OwnerName":"Dylan Hales"},{"DBA":"Little Ways","Address":"343 W Broadway, New York, NY 10013","Class":"C","Latitude":"40.7225864","Longitude":"-74.003467","RecOpenYear":"2020","Seq":"1","img1":"","img2":"","OwnerNumber":"Owner1","OwnerName":"Dylan Hales"},{"DBA":"Loosie's Nightclub","Address":"145 Bowery, New York, NY 10002","Class":"C","Latitude":"40.71906775","Longitude":"-73.99414258","RecOpenYear":"2023","Seq":"1","img1":"","img2":"","OwnerNumber":"Owner1","OwnerName":"Dylan Hales"},{"DBA":"Silver Lining Lounge","Address":"145 Bowery, New York, NY 10002","Class":"C","Latitude":"40.71906775","Longitude":"-73.99414258","RecOpenYear":"2023","Seq":"2","img1":"","img2":"","OwnerNumber":"Owner1","OwnerName":"Dylan Hales"},{"DBA":"Skin Contact","Address":"76 Orchard St, New York, NY 10002","Class":"B","Latitude":"40.7177214","Longitude":"-73.99034","RecOpenYear":"2019","Seq":"1","img1":"","img2":"","OwnerNumber":"Owner1","OwnerName":"Eben Lillie"},{"DBA":"Danger Danger","Address":"232 Knickerbocker Ave, Brooklyn, NY 11237","Class":"C","Latitude":"40.7028182","Longitude":"-73.9258708","RecOpenYear":"2023","Seq":"1","img1":"","img2":"","OwnerNumber":"Owner2","OwnerName":"Eddy Buckingham"},{"DBA":"The Nolitan","Address":"153 Elizabeth St, New York, NY, 10012","Class":"C","Latitude":"40.7204454","Longitude":"-73.9951507","RecOpenYear":"2012","Seq":"1","img1":"","img2":"","OwnerNumber":"Owner1","OwnerName":"Edmond Li"},{"DBA":"Motel Morris","Address":"132 7th Ave, New York, NY 10011","Class":"C","Latitude":"40.740988","Longitude":"-73.998035","RecOpenYear":"2017","Seq":"1","img1":"","img2":"","OwnerNumber":"Owner2","OwnerName":"Edmond Li"},{"DBA":"Wayla","Address":"100 Forsyth St, New York, NY 10002","Class":"B","Latitude":"40.71826055","Longitude":"-73.9926389","RecOpenYear":"2019","Seq":"1","img1":"","img2":"","OwnerNumber":"Owner3","OwnerName":"Edmond Li"},{"DBA":"Bronson\u2019s Burgers","Address":"250 Mulberry St, New York, NY 10012","Class":"C","Latitude":"40.7232351","Longitude":"-73.9956234","RecOpenYear":"2021","Seq":"1","img1":"","img2":"","OwnerNumber":"Owner1","OwnerName":"Edmondi Li"},{"DBA":"Wan Wan","Address":"209 Mulberry St, New York, NY 10012","Class":"C","Latitude":"40.7218037","Longitude":"-73.9964299","RecOpenYear":"2022","Seq":"1","img1":"","img2":"","OwnerNumber":"Owner1","OwnerName":"Edmondi Li"},{"DBA":"Her Name Was Carmen","Address":"527 Broome St, New York, NY 10013","Class":"C","Latitude":"40.7238334","Longitude":"-74.0041488","RecOpenYear":"2018","Seq":"2","img1":"","img2":"","OwnerNumber":"Owner3","OwnerName":"Eduardo A Diaz"},{"DBA":"Chinese Tuxedo; Peachy's","Address":"5 Doyers St, New York, NY 10013","Class":"B","Latitude":"40.7143387","Longitude":"-73.9980744","RecOpenYear":"2016","Seq":"1","img1":"","img2":"","OwnerNumber":"Owner3","OwnerName":"Edward Buckingham"},{"DBA":"The Tyger","Address":"1 Howard St, New York, NY 10013","Class":"C","Latitude":"40.7188128","Longitude":"-73.9995074","RecOpenYear":"2021","Seq":"1","img1":"","img2":"","OwnerNumber":"Owner1","OwnerName":"Edward Buckingham"},{"DBA":"Top Hops EV","Address":"124 E 14th St, New York, NY 10003","Class":"C","Latitude":"40.73367","Longitude":"-73.9885635","RecOpenYear":"2017","Seq":"1","img1":"","img2":"","OwnerNumber":"Owner1","OwnerName":"Edward Kenny"},{"DBA":"Top Hops LES","Address":"88 Essex St, New York, NY 10002","Class":"B","Latitude":"40.7182693","Longitude":"-73.9881502","RecOpenYear":"2019","Seq":"1","img1":"","img2":"","OwnerNumber":"Owner1","OwnerName":"Edward Kenny"},{"DBA":"Black Cat LES","Address":"172 Rivington St, New York, NY, 10002","Class":"C","Latitude":"40.7190103","Longitude":"-73.9845737","RecOpenYear":"2016","Seq":"1","img1":"","img2":"","OwnerNumber":"Owner2","OwnerName":"Edward Wong"},{"DBA":"Sour Mouse","Address":"110 Delancey St, New York, NY, 10002","Class":"B","Latitude":"40.71788733","Longitude":"-73.98519538","RecOpenYear":"2020","Seq":"1","img1":"","img2":"","OwnerNumber":"Owner2","OwnerName":"Edward Wong"},{"DBA":"Randolph Beer","Address":"82 Prospect St, Brooklyn, NY 11201","Class":"C","Latitude":"40.700557","Longitude":"-73.98716067","RecOpenYear":"2015","Seq":"1","img1":"","img2":"","OwnerNumber":"Owner4","OwnerName":"Eli Hariton"},{"DBA":"E*A*T Madison Avenue","Address":"1064 Madison Ave, New York, NY 10028","Class":"C","Latitude":"40.777366","Longitude":"-73.9616538","RecOpenYear":"1973","Seq":"1","img1":"","img2":"","OwnerNumber":"Owner1","OwnerName":"Eli Zabar"},{"DBA":"Eli's Table","Address":"1411 3rd Ave, New York, NY 10028","Class":"C","Latitude":"40.7750655","Longitude":"-73.9564976","RecOpenYear":"2003","Seq":"1","img1":"","img2":"","OwnerNumber":"Owner1","OwnerName":"Eli Zabar"},{"DBA":"Eli's Essentials","Address":"1291 Lexington Ave, New York, NY 10128","Class":"C","Latitude":"40.780024","Longitude":"-73.955077","RecOpenYear":"2013","Seq":"1","img1":"","img2":"","OwnerNumber":"Owner1","OwnerName":"Eli Zabar"},{"DBA":"Eli's Essentials And Wine Bar","Address":"1270 Madison Ave, New York, NY 10028","Class":"C","Latitude":"40.7838901","Longitude":"-73.9564753","RecOpenYear":"2015","Seq":"1","img1":"","img2":"","OwnerNumber":"Owner1","OwnerName":"Eli Zabar"},{"DBA":"Eli\u2019s Night Shift","Address":"189 E 79th St, New York, NY 10075","Class":"C","Latitude":"40.77453104","Longitude":"-73.95765738","RecOpenYear":"2015","Seq":"2","img1":"","img2":"","OwnerNumber":"Owner1","OwnerName":"Eli Zabar"},{"DBA":"Somm Time","Address":"254 Broome St, New York, NY 10002","Class":"B","Latitude":"40.71820635","Longitude":"-73.98992024","RecOpenYear":"2020","Seq":"1","img1":"","img2":"","OwnerNumber":"Owner1","OwnerName":"Eli Zabar"},{"DBA":"AUJLA'S INDIAN COFFEE HOUSE","Address":"56 Hester St, New York, NY 10002","Class":"A","Latitude":"40.71573885","Longitude":"-73.99081476","RecOpenYear":"2021","Seq":"1","img1":"https:\/\/github.com\/hsianghsi\/images\/blob\/main\/dimes360\/dimes360_AUJLA.jpg","img2":"https:\/\/raw.githubusercontent.com\/hsianghsi\/images\/blob\/main\/dimes360_full\/IMG_20231227_220457_268.jpg","OwnerNumber":"Owner1","OwnerName":"Emily Adams Bode"},{"DBA":"The River","Address":"102 Bayard St, New York, NY 10013","Class":"C","Latitude":"40.7161999","Longitude":"-73.99969235","RecOpenYear":"2022","Seq":"1","img1":"https:\/\/github.com\/hsianghsi\/images\/blob\/main\/dimes360\/dimes360_The_River_3.jpg","img2":"https:\/\/raw.githubusercontent.com\/hsianghsi\/images\/blob\/main\/dimes360_full\/IMG_20231227_220457_268.jpg","OwnerNumber":"Owner3","OwnerName":"Emily Adams Bode"},{"DBA":"Canary Club","Address":"303 Broome St, New York, NY 10002","Class":"B","Latitude":"40.718649","Longitude":"-73.99225055","RecOpenYear":"2019","Seq":"1","img1":"","img2":"","OwnerNumber":"Owner2","OwnerName":"Emily Frantz"},{"DBA":"Public Records","Address":"233 Butler St, Brooklyn, NY 11217","Class":"C","Latitude":"40.6821013","Longitude":"-73.9865223","RecOpenYear":"2019","Seq":"1","img1":"","img2":"","OwnerNumber":"Owner2","OwnerName":"Eric VanderWal"},{"DBA":"Kodawari Coffee","Address":"100 Forsyth St, New York, NY 10002","Class":"B","Latitude":"40.71826055","Longitude":"-73.9926389","RecOpenYear":"2018","Seq":"1","img1":"","img2":"","OwnerNumber":"Owner1","OwnerName":"Erika Chou"},{"DBA":"Wayla","Address":"100 Forsyth St, New York, NY 10002","Class":"B","Latitude":"40.71826055","Longitude":"-73.9926389","RecOpenYear":"2019","Seq":"1","img1":"","img2":"","OwnerNumber":"Owner1","OwnerName":"Erika Chou"},{"DBA":"Kimika","Address":"40 Kenmare St, New York, NY 10012","Class":"C","Latitude":"40.720835","Longitude":"-73.9953165","RecOpenYear":"2020","Seq":"1","img1":"","img2":"","OwnerNumber":"Owner1","OwnerName":"Erika Chou"},{"DBA":"Wan Wan","Address":"207 Mulberry St, New York, NY 10012","Class":"C","Latitude":"40.7216402","Longitude":"-73.9965036","RecOpenYear":"2022","Seq":"1","img1":"","img2":"","OwnerNumber":"Owner1","OwnerName":"Erika Chou"},{"DBA":"Caf\u00e9 Katja","Address":"79 Orchard St, New York, NY 10002","Class":"B","Latitude":"40.71772148","Longitude":"-73.99059678","RecOpenYear":"2007","Seq":"1","img1":"","img2":"","OwnerNumber":"Owner1","OwnerName":"Erwin Schr\u00f6ttner"},{"DBA":"Metrograph Commissary","Address":"7 Ludlow St, New York, NY 10002","Class":"A","Latitude":"40.7150926","Longitude":"-73.9911357","RecOpenYear":"2016","Seq":"1","img1":"https:\/\/github.com\/hsianghsi\/images\/blob\/main\/dimes360\/dimes360_Metrograph_2.jpg","img2":"","OwnerNumber":"Owner3","OwnerName":"Ethan Oberman"},{"DBA":"Peoples Wine Bar","Address":"115 Delancey St, New York, NY 10002","Class":"B","Latitude":"40.7181774","Longitude":"-73.9877719","RecOpenYear":"2019","Seq":"1","img1":"","img2":"","OwnerNumber":"Owner2","OwnerName":"Fabian von Hauske Valtierra"},{"DBA":"Primo's","Address":"95 W Broadway, New York, NY 10007","Class":"C","Latitude":"40.7153573","Longitude":"-74.0092393","RecOpenYear":"2018","Seq":"1","img1":"","img2":"https:\/\/raw.githubusercontent.com\/hsianghsi\/images\/blob\/main\/dimes360_full\/IMG_20231227_220457_268.jpg","OwnerNumber":"Owner8","OwnerName":"Fabio Pasquale Granato"},{"DBA":"CONTRA","Address":"138 Orchard St, New York, NY 10002","Class":"B","Latitude":"40.7199202","Longitude":"-73.9892098","RecOpenYear":"2013","Seq":"1","img1":"","img2":"","OwnerNumber":"Owner1","OwnerName":"Fabi\u00e1n von Hauske Valtierra"},{"DBA":"Wildair","Address":"142 Orchard St, New York, NY 10002","Class":"B","Latitude":"40.72002098","Longitude":"-73.9891659","RecOpenYear":"2015","Seq":"1","img1":"","img2":"","OwnerNumber":"Owner1","OwnerName":"Fabi\u00e1n von Hauske Valtierra"},{"DBA":"Una Pizza Napoletana","Address":"175 Orchard St, New York, NY 10002","Class":"C","Latitude":"40.7217237","Longitude":"-73.9885108","RecOpenYear":"2022","Seq":"1","img1":"","img2":"","OwnerNumber":"Owner2","OwnerName":"Fabi\u00e1n von Hauske Valtierra"},{"DBA":"Day June Luncheonette","Address":"387 NY-296, Hensonville, NY, 12439","Class":"C","Latitude":"42.2905473","Longitude":"-74.2168708","RecOpenYear":"2023","Seq":"1","img1":"","img2":"","OwnerNumber":"Owner1","OwnerName":"Fabi\u00e1n von Hauske Valtierra"},{"DBA":"The Ten Bells","Address":"247 Broome St, New York, NY 10002","Class":"B","Latitude":"40.71781905","Longitude":"-73.9898471","RecOpenYear":"2008","Seq":"1","img1":"","img2":"","OwnerNumber":"Owner2","OwnerName":"Fabrice Vautrin"},{"DBA":"The Ten Bells Brooklyn","Address":"65 Irving Ave, Brooklyn, NY 11237","Class":"C","Latitude":"40.70467705","Longitude":"-73.92385397","RecOpenYear":"2021","Seq":"1","img1":"","img2":"","OwnerNumber":"Owner2","OwnerName":"Fabrice Vautrin"},{"DBA":"Gem","Address":"116 Forsyth St, New York, NY 10002","Class":"B","Latitude":"40.7191565","Longitude":"-73.9922969","RecOpenYear":"2018","Seq":"1","img1":"","img2":"","OwnerNumber":"Owner1","OwnerName":"Flynn McGarry"},{"DBA":"Gem Wine","Address":"297 Broome St, New York, NY 10002","Class":"B","Latitude":"40.7186095","Longitude":"-73.9921037","RecOpenYear":"2022","Seq":"1","img1":"","img2":"","OwnerNumber":"Owner1","OwnerName":"Flynn McGarry"},{"DBA":"Clockwork Bar","Address":"21 Essex St, New York, NY 10002","Class":"A","Latitude":"40.7153863","Longitude":"-73.990065","RecOpenYear":"2013","Seq":"1","img1":"","img2":"https:\/\/raw.githubusercontent.com\/hsianghsi\/images\/blob\/main\/dimes360_full\/IMG_20231227_220457_268.jpg","OwnerNumber":"Owner1","OwnerName":"Francesco Scotto di Santolo"},{"DBA":"Strangelove Bar","Address":"229 E 53rd St, New York, NY 10022","Class":"C","Latitude":"40.75738535","Longitude":"-73.96809702","RecOpenYear":"2018","Seq":"1","img1":"","img2":"https:\/\/raw.githubusercontent.com\/hsianghsi\/images\/blob\/main\/dimes360_full\/IMG_20231227_220457_268.jpg","OwnerNumber":"Owner1","OwnerName":"Francesco Scotto di Santolo"},{"DBA":"Public Records","Address":"233 Butler St, Brooklyn, NY 11217","Class":"C","Latitude":"40.6821013","Longitude":"-73.9865223","RecOpenYear":"2019","Seq":"1","img1":"","img2":"","OwnerNumber":"Owner1","OwnerName":"Francis Harris"},{"DBA":"Hotel Chantelle","Address":"92 Ludlow St, New York, NY 10002","Class":"B","Latitude":"40.7184164","Longitude":"-73.9890541","RecOpenYear":"2010","Seq":"1","img1":"","img2":"","OwnerNumber":"Owner1","OwnerName":"Frank Alessio"},{"DBA":"Essex Pearl","Address":"115 Delancey St, New York, NY 10002","Class":"B","Latitude":"40.7181774","Longitude":"-73.9877719","RecOpenYear":"2019","Seq":"1","img1":"","img2":"","OwnerNumber":"Owner5","OwnerName":"Freeman Wong"},{"DBA":"Oma Grassa","Address":"753 Fulton St, Brooklyn, NY 11217","Class":"C","Latitude":"40.6865517","Longitude":"-73.9746741","RecOpenYear":"2022","Seq":"1","img1":"","img2":"","OwnerNumber":"Owner4","OwnerName":"French Lady LLC"},{"DBA":"Parcelle","Address":"135C Division St, New York, NY 10002","Class":"A","Latitude":"40.7143722","Longitude":"-73.9912687","RecOpenYear":"2021","Seq":"1","img1":"https:\/\/github.com\/hsianghsi\/images\/blob\/main\/dimes360\/dimes360_Parcelle_4.jpg","img2":"","OwnerNumber":"Owner3","OwnerName":"Gabrielle Finley"},{"DBA":"Maiden Lane","Address":"162 Avenue B, New York, NY 10009","Class":"C","Latitude":"40.7271258","Longitude":"-73.9798625","RecOpenYear":"2013","Seq":"1","img1":"","img2":"https:\/\/raw.githubusercontent.com\/hsianghsi\/images\/blob\/main\/dimes360_full\/IMG_20231227_220457_268.jpg","OwnerNumber":"Owner2","OwnerName":"Gareth Maccubbin"},{"DBA":"Gunbae","Address":"67 Murray St, New York, NY 10007","Class":"C","Latitude":"40.7146524","Longitude":"-74.0102518","RecOpenYear":"2015","Seq":"1","img1":"","img2":"","OwnerNumber":"Owner1","OwnerName":"Gary Cheung"},{"DBA":"NOREE","Address":"274 Grand Street, New York, NY 10002","Class":"B","Latitude":"40.7180633","Longitude":"-73.9927397","RecOpenYear":"2018","Seq":"1","img1":"","img2":"","OwnerNumber":"Owner1","OwnerName":"Gary Cheung"},{"DBA":"Grey Lady","Address":"77 Delancey St, New York, NY 10002","Class":"B","Latitude":"40.7188615","Longitude":"-73.9902614","RecOpenYear":"2014","Seq":"1","img1":"","img2":"","OwnerNumber":"Owner4","OwnerName":"Gavin McLaughlin"},{"DBA":"The Flower Shop","Address":"107 Eldridge St, New York, NY 10002","Class":"B","Latitude":"40.718113","Longitude":"-73.9922837","RecOpenYear":"2017","Seq":"1","img1":"","img2":"","OwnerNumber":"Owner10","OwnerName":"George Jedda"},{"DBA":"The Granddaddy","Address":"290 Grand St, New York, NY 10002","Class":"B","Latitude":"40.7177448","Longitude":"-73.9920297","RecOpenYear":"2018","Seq":"1","img1":"","img2":"","OwnerNumber":"Owner4","OwnerName":"George Mastoris"},{"DBA":"Dr Clark","Address":"104 Bayard St, New York, NY 10013","Class":"C","Latitude":"40.71620935","Longitude":"-73.99979042","RecOpenYear":"2020","Seq":"2","img1":"","img2":"","OwnerNumber":"Owner4","OwnerName":"Gerado Davidson"},{"DBA":"Primo's","Address":"95 W Broadway, New York, NY 10007","Class":"C","Latitude":"40.7153573","Longitude":"-74.0092393","RecOpenYear":"2018","Seq":"1","img1":"","img2":"https:\/\/raw.githubusercontent.com\/hsianghsi\/images\/blob\/main\/dimes360_full\/IMG_20231227_220457_268.jpg","OwnerNumber":"Owner5","OwnerName":"Gerald Barad"},{"DBA":"The Tyger","Address":"1 Howard St, New York, NY 10013","Class":"C","Latitude":"40.7188128","Longitude":"-73.9995074","RecOpenYear":"2021","Seq":"1","img1":"","img2":"","OwnerNumber":"Owner2","OwnerName":"Geraldine Buckingham"},{"DBA":"Dirt Candy","Address":"86 Allen St, New York, NY 10002","Class":"B","Latitude":"40.7178731","Longitude":"-73.9907212","RecOpenYear":"2015","Seq":"1","img1":"","img2":"","OwnerNumber":"Owner4","OwnerName":"Grady Hendrix"},{"DBA":"Parcelle","Address":"135C Division St, New York, NY 10002","Class":"A","Latitude":"40.7143722","Longitude":"-73.9912687","RecOpenYear":"2021","Seq":"1","img1":"https:\/\/github.com\/hsianghsi\/images\/blob\/main\/dimes360\/dimes360_Parcelle_4.jpg","img2":"","OwnerNumber":"Owner1","OwnerName":"Grant Reynolds"},{"DBA":"Los Amantes Mezcaler\u00eda","Address":"C. de Ignacio Allende 107, Centro Hist\u00f3rico de la Cdad. de M\u00e9xico, Centro, 68005 Oaxaca de Ju\u00e1rez, Oax., Mexico","Class":"D","Latitude":"17.06559079","Longitude":"-96.7242363","RecOpenYear":"2007","Seq":"1","img1":"","img2":"","OwnerNumber":"Owner1","OwnerName":"Guillermo Olguin"},{"DBA":"Casa Mezcal","Address":"86 Orchard St, New York, NY 10002","Class":"B","Latitude":"40.717926","Longitude":"-73.990124","RecOpenYear":"2010","Seq":"1","img1":"","img2":"","OwnerNumber":"Owner1","OwnerName":"Guillermo Olguin"},{"DBA":"Rong Hang","Address":"38 Eldridge St, New York, NY 10002","Class":"A","Latitude":"40.71565655","Longitude":"-73.99294215","RecOpenYear":"2009","Seq":"1","img1":"","img2":"","OwnerNumber":"Owner1","OwnerName":"Guobin Pan"},{"DBA":"Sunday to Sunday","Address":"88 Orchard St, New York, NY 10002","Class":"B","Latitude":"40.718019","Longitude":"-73.990174","RecOpenYear":"2020","Seq":"1","img1":"","img2":"","OwnerNumber":"Owner1","OwnerName":"Gurpreet Singh"},{"DBA":"Hou Yi Hot Pot","Address":"92 Hester St, New York, NY, 10002","Class":"B","Latitude":"40.7162157","Longitude":"-73.99256006","RecOpenYear":"2014","Seq":"1","img1":"","img2":"","OwnerNumber":"Owner1","OwnerName":"Hai Shian Peng"},{"DBA":"ROUND K BY SOL","Address":"78 Canal St, New York, NY 10002","Class":"A","Latitude":"40.7150678","Longitude":"-73.9931603","RecOpenYear":"2014","Seq":"1","img1":"","img2":"","OwnerNumber":"Owner1","OwnerName":"Hansol Kim"},{"DBA":"Berlin Currywurst","Address":"75 9th Ave, New York, NY 10011","Class":"C","Latitude":"40.7420513","Longitude":"-74.0048973","RecOpenYear":"2016","Seq":"1","img1":"","img2":"","OwnerNumber":"Owner1","OwnerName":"Hardeep Manak"},{"DBA":"Randolph Beer","Address":"82 Prospect St, Brooklyn, NY 11201","Class":"C","Latitude":"40.700557","Longitude":"-73.98716067","RecOpenYear":"2015","Seq":"1","img1":"","img2":"","OwnerNumber":"Owner2","OwnerName":"Hari Kalyan"},{"DBA":"Sunday to Sunday","Address":"88 Orchard St, New York, NY 10002","Class":"B","Latitude":"40.718019","Longitude":"-73.990174","RecOpenYear":"2020","Seq":"1","img1":"","img2":"","OwnerNumber":"Owner2","OwnerName":"Harileen Singh"},{"DBA":"Manero's","Address":"113 Mulberry St, New York, NY 10013","Class":"C","Latitude":"40.7176091","Longitude":"-73.9984198","RecOpenYear":"2022","Seq":"1","img1":"https:\/\/github.com\/hsianghsi\/images\/blob\/main\/dimes360\/dimes360_Maneros_1.jpg","img2":"https:\/\/raw.githubusercontent.com\/hsianghsi\/images\/blob\/main\/dimes360_full\/IMG_20231227_220457_268.jpg","OwnerNumber":"Owner4","OwnerName":"Hassan Gholizadeh"},{"DBA":"Davelle","Address":"102 Suffolk St, New York, NY 10002","Class":"C","Latitude":"40.7185107","Longitude":"-73.9862303","RecOpenYear":"2018","Seq":"1","img1":"","img2":"","OwnerNumber":"Owner4","OwnerName":"Hazuki Hair"},{"DBA":"Apotheke","Address":"9 Doyers St, New York, NY, 10013","Class":"B","Latitude":"40.7143873","Longitude":"-73.9981634","RecOpenYear":"2008","Seq":"1","img1":"","img2":"","OwnerNumber":"Owner1","OwnerName":"Heather Tierney"},{"DBA":"The Butcher's Daughter","Address":"19 Kenmare St, New York, NY 10012","Class":"C","Latitude":"40.7207158","Longitude":"-73.9947851","RecOpenYear":"2012","Seq":"1","img1":"","img2":"","OwnerNumber":"Owner8","OwnerName":"Heather Tierney"},{"DBA":"The Butcher's Daughter LA","Address":"1205 Abbot Kinney Blvd, Venice, CA 90291","Class":"D","Latitude":"33.9916038","Longitude":"-118.469208","RecOpenYear":"2016","Seq":"1","img1":"","img2":"","OwnerNumber":"Owner1","OwnerName":"Heather Tierney"},{"DBA":"The Butcher's Daughter Williamsburg","Address":"271 Metropolitan Ave, Brooklyn, NY 11211","Class":"C","Latitude":"40.7148577","Longitude":"-73.9584597","RecOpenYear":"2019","Seq":"1","img1":"","img2":"","OwnerNumber":"Owner1","OwnerName":"Heather Tierney"},{"DBA":"De Buena Planta Venice","Address":"1118 Abbot Kinney Blvd, Venice, CA 90291","Class":"D","Latitude":"33.99159624","Longitude":"-118.4700754","RecOpenYear":"2020","Seq":"1","img1":"","img2":"","OwnerNumber":"Owner1","OwnerName":"Heather Tierney"},{"DBA":"De Buena Planta LA","Address":"2815 Sunset Blvd, Los Angeles, CA 90026","Class":"D","Latitude":"34.0824867","Longitude":"-118.271966","RecOpenYear":"2022","Seq":"1","img1":"","img2":"","OwnerNumber":"Owner1","OwnerName":"Heather Tierney"},{"DBA":"Apotheke NoMad","Address":"9 W 26th St, New York, NY 10010","Class":"C","Latitude":"40.7440098","Longitude":"-73.9891964","RecOpenYear":"2022","Seq":"2","img1":"","img2":"","OwnerNumber":"Owner2","OwnerName":"Heather Tierney"},{"DBA":"The Butcher's Daughter West Hollywood","Address":"8755 Melrose Ave, West Hollywood, CA 90069","Class":"D","Latitude":"34.0810871","Longitude":"-118.3842049","RecOpenYear":"2022","Seq":"3","img1":"","img2":"","OwnerNumber":"Owner1","OwnerName":"Heather Tierney"},{"DBA":"Rucola","Address":"190 Dean St, Brooklyn, NY 11217","Class":"C","Latitude":"40.6856169","Longitude":"-73.9858704","RecOpenYear":"2011","Seq":"1","img1":"","img2":"","OwnerNumber":"Owner1","OwnerName":"Henry Moynahan Rich"},{"DBA":"Kalye","Address":"251 Broome St, New York, NY 10002","Class":"B","Latitude":"40.717987","Longitude":"-73.99007293","RecOpenYear":"2023","Seq":"1","img1":"","img2":"","OwnerNumber":"Owner2","OwnerName":"Henry S Mallari-d'auria"},{"DBA":"Davelle","Address":"102 Suffolk St, New York, NY 10002","Class":"C","Latitude":"40.7185107","Longitude":"-73.9862303","RecOpenYear":"2018","Seq":"1","img1":"","img2":"","OwnerNumber":"Owner2","OwnerName":"Hiro Yonekawa"},{"DBA":"Chinese Tuxedo; Peachy's","Address":"5 Doyers St, New York, NY 10013","Class":"B","Latitude":"40.7143387","Longitude":"-73.9980744","RecOpenYear":"2016","Seq":"1","img1":"","img2":"","OwnerNumber":"Owner1","OwnerName":"Hok Lam"},{"DBA":"The Tyger","Address":"1 Howard St, New York, NY 10013","Class":"C","Latitude":"40.7188128","Longitude":"-73.9995074","RecOpenYear":"2021","Seq":"1","img1":"","img2":"","OwnerNumber":"Owner5","OwnerName":"Hok Sung Lam"},{"DBA":"Gem","Address":"116 Forsyth St, New York, NY 10002","Class":"B","Latitude":"40.7191565","Longitude":"-73.9922969","RecOpenYear":"2018","Seq":"1","img1":"","img2":"","OwnerNumber":"Owner4","OwnerName":"Holden Management LLC"},{"DBA":"Gem Wine","Address":"297 Broome St, New York, NY 10002","Class":"B","Latitude":"40.7186095","Longitude":"-73.9921037","RecOpenYear":"2022","Seq":"1","img1":"","img2":"","OwnerNumber":"Owner4","OwnerName":"Holden Management LLC"},{"DBA":"Raku","Address":"342 E 6th St, New York, NY 10003","Class":"C","Latitude":"40.7264965","Longitude":"-73.9866552","RecOpenYear":"2015","Seq":"1","img1":"","img2":"","OwnerNumber":"Owner1","OwnerName":"Huey Cheng"},{"DBA":"Raku Soho","Address":"48 MacDougal St, New York, NY 10012","Class":"C","Latitude":"40.7273101","Longitude":"-74.0025925","RecOpenYear":"2017","Seq":"1","img1":"","img2":"","OwnerNumber":"Owner1","OwnerName":"Huey Cheng"},{"DBA":"Patisserie Fouet","Address":"15 E 13th St, New York, NY, 10003","Class":"C","Latitude":"40.7349886","Longitude":"-73.9930818","RecOpenYear":"2017","Seq":"2","img1":"","img2":"","OwnerNumber":"Owner1","OwnerName":"Huey Cheng"},{"DBA":"Double Chicken Please","Address":"115 Allen St, New York, NY 10002","Class":"B","Latitude":"40.719613","Longitude":"-73.9906095","RecOpenYear":"2020","Seq":"1","img1":"","img2":"","OwnerNumber":"Owner2","OwnerName":"Huey Cheng"},{"DBA":"Yung Sun Restaurant","Address":"47 E Broadway, New York, NY 10002","Class":"B","Latitude":"40.7134411","Longitude":"-73.9958191","RecOpenYear":"2005","Seq":"1","img1":"","img2":"","OwnerNumber":"Owner1","OwnerName":"Hui-mui Monica Chung"},{"DBA":"Acme Bar & Grill","Address":"9 Great Jones Street, New York, New York 10012","Class":"C","Latitude":"40.7272258","Longitude":"-73.9940546","RecOpenYear":"2012","Seq":"1","img1":"","img2":"https:\/\/raw.githubusercontent.com\/hsianghsi\/images\/blob\/main\/dimes360_full\/IMG_20231227_220457_268.jpg","OwnerNumber":"Owner3","OwnerName":"Huy Chi Le"},{"DBA":"The Nines","Address":"9 Great Jones Street, New York, New York 10012","Class":"C","Latitude":"40.7274955","Longitude":"-73.9938555","RecOpenYear":"2022","Seq":"1","img1":"","img2":"https:\/\/raw.githubusercontent.com\/hsianghsi\/images\/blob\/main\/dimes360_full\/IMG_20231227_220457_268.jpg","OwnerNumber":"Owner3","OwnerName":"Huy Chi Le"},{"DBA":"Gunbae","Address":"67 Murray St, New York, NY 10007","Class":"C","Latitude":"40.7146524","Longitude":"-74.0102518","RecOpenYear":"2015","Seq":"1","img1":"","img2":"","OwnerNumber":"Owner3","OwnerName":"Hyung Rae Cho"},{"DBA":"Grand Street Pizza","Address":"384 Grand St, New York, NY, 10002","Class":"B","Latitude":"40.7163717","Longitude":"-73.9875854","RecOpenYear":"2021","Seq":"1","img1":"","img2":"","OwnerNumber":"Owner2","OwnerName":"Ian J Glazer"},{"DBA":"Escobar Aspen","Address":"426 E Hyman Ave, Aspen, CO 81611","Class":"D","Latitude":"39.18914435","Longitude":"-106.8189617","RecOpenYear":"2010","Seq":"1","img1":"","img2":"","OwnerNumber":"Owner2","OwnerName":"Ian Perry"},{"DBA":"Grey Lady","Address":"77 Delancey St, New York, NY 10002","Class":"B","Latitude":"40.7188615","Longitude":"-73.9902614","RecOpenYear":"2014","Seq":"1","img1":"","img2":"","OwnerNumber":"Owner3","OwnerName":"Ian Perry"},{"DBA":"Los Amantes Mezcaler\u00eda","Address":"C. de Ignacio Allende 107, Centro Hist\u00f3rico de la Cdad. de M\u00e9xico, Centro, 68005 Oaxaca de Ju\u00e1rez, Oax., Mexico","Class":"D","Latitude":"17.06559079","Longitude":"-96.7242363","RecOpenYear":"2007","Seq":"1","img1":"","img2":"","OwnerNumber":"Owner2","OwnerName":"Ignacio Carballido"},{"DBA":"Casa Mezcal","Address":"86 Orchard St, New York, NY 10002","Class":"B","Latitude":"40.717926","Longitude":"-73.990124","RecOpenYear":"2010","Seq":"1","img1":"","img2":"","OwnerNumber":"Owner2","OwnerName":"Ignacio Carballido"},{"DBA":"Estela","Address":"47 E Houston St 1st floor, New York, NY 10012","Class":"C","Latitude":"40.7246739","Longitude":"-73.9947509","RecOpenYear":"2013","Seq":"1","img1":"","img2":"https:\/\/raw.githubusercontent.com\/hsianghsi\/images\/blob\/main\/dimes360_full\/IMG_20231227_220457_268.jpg","OwnerNumber":"Owner1","OwnerName":"Ignacio Mattos"},{"DBA":"Caf\u00e9 Altro Paradiso","Address":"234 Spring St, New York, NY 10013","Class":"C","Latitude":"40.7252617","Longitude":"-74.0036021","RecOpenYear":"2016","Seq":"1","img1":"","img2":"https:\/\/raw.githubusercontent.com\/hsianghsi\/images\/blob\/main\/dimes360_full\/IMG_20231227_220457_268.jpg","OwnerNumber":"Owner1","OwnerName":"Ignacio Mattos"},{"DBA":"Lodi","Address":"1 Rockefeller Plaza, New York, NY 10020","Class":"C","Latitude":"40.7579519","Longitude":"-73.97894817","RecOpenYear":"2021","Seq":"1","img1":"","img2":"https:\/\/raw.githubusercontent.com\/hsianghsi\/images\/blob\/main\/dimes360_full\/IMG_20231227_220457_268.jpg","OwnerNumber":"Owner1","OwnerName":"Ignacio Mattos"},{"DBA":"Corner Bar","Address":"9 Orchard St, New York, NY 10002","Class":"A","Latitude":"40.7149402","Longitude":"-73.992298","RecOpenYear":"2021","Seq":"2","img1":"https:\/\/github.com\/hsianghsi\/images\/blob\/main\/dimes360\/dimes360_Corner_Bar_1.jpg","img2":"https:\/\/raw.githubusercontent.com\/hsianghsi\/images\/blob\/main\/dimes360_full\/IMG_20231227_220457_268.jpg","OwnerNumber":"Owner3","OwnerName":"Ignacio Mattos"},{"DBA":"East Broadway Restaurant","Address":"94b E Broadway, New York, NY 10002","Class":"B","Latitude":"40.71388999","Longitude":"73.9936034","RecOpenYear":"2011","Seq":"1","img1":"","img2":"","OwnerNumber":"Owner1","OwnerName":"Irene Zhang"},{"DBA":"Gouie New York","Address":"115 Delancey St, New York, NY 10002","Class":"B","Latitude":"40.7181774","Longitude":"-73.9877719","RecOpenYear":"2021","Seq":"1","img1":"","img2":"","OwnerNumber":"Owner3","OwnerName":"Issey Maeda"},{"DBA":"Sushi Yasaka","Address":"251 W 72nd St, New York, NY 10023","Class":"C","Latitude":"40.77962335","Longitude":"-73.98342215","RecOpenYear":"2012","Seq":"1","img1":"","img2":"","OwnerNumber":"Owner1","OwnerName":"Jack Hu"},{"DBA":"Nare Sushi","Address":"115 E 57th St, New York, NY, 10022","Class":"C","Latitude":"40.7614336","Longitude":"-73.9699236","RecOpenYear":"2016","Seq":"1","img1":"","img2":"","OwnerNumber":"Owner1","OwnerName":"Jack Hu"},{"DBA":"Izakaya Juraku","Address":"121 Ludlow St, New York, NY 10002","Class":"B","Latitude":"40.7196792","Longitude":"-73.988701","RecOpenYear":"2018","Seq":"1","img1":"","img2":"","OwnerNumber":"Owner1","OwnerName":"Jack Hu"},{"DBA":"Rooftop93","Address":"93 Bowery, New York, NY 10002, USA","Class":"B","Latitude":"40.7170503","Longitude":"-73.9950047","RecOpenYear":"2016","Seq":"1","img1":"","img2":"","OwnerNumber":"Owner1","OwnerName":"Jack Moy"},{"DBA":"Make Believe","Address":"190 Allen St, New York, NY 10002","Class":"C","Latitude":"40.7218303","Longitude":"-73.9892736","RecOpenYear":"2018","Seq":"1","img1":"","img2":"","OwnerNumber":"Owner2","OwnerName":"Jack Mulqueen"},{"DBA":"Metrograph Commissary","Address":"7 Ludlow St, New York, NY 10002","Class":"A","Latitude":"40.7150926","Longitude":"-73.9911357","RecOpenYear":"2016","Seq":"1","img1":"https:\/\/github.com\/hsianghsi\/images\/blob\/main\/dimes360\/dimes360_Metrograph_2.jpg","img2":"","OwnerNumber":"Owner4","OwnerName":"Jacob Perlin"},{"DBA":"Frankel\u2019s Deli","Address":"631 Manhattan Ave, Brooklyn, NY 11222","Class":"C","Latitude":"40.7239127","Longitude":"-73.9510094","RecOpenYear":"2016","Seq":"1","img1":"","img2":"","OwnerNumber":"Owner1","OwnerName":"Jaime Meline"},{"DBA":"Winnie\u2019s Bar","Address":"58 E Broadway 2nd fl, New York, NY 10002","Class":"B","Latitude":"40.71382276","Longitude":"-73.9953353","RecOpenYear":"2019","Seq":"1","img1":"","img2":"","OwnerNumber":"Owner2","OwnerName":"Jaime Mui"},{"DBA":"Le Crocodile","Address":"80 Wythe Avenue, Brooklyn, New York 11211 ","Class":"C","Latitude":"40.7219036","Longitude":"-73.9580608","RecOpenYear":"2020","Seq":"1","img1":"https:\/\/github.com\/hsianghsi\/images\/blob\/main\/dimes360\/dimes360_le_crocodile_1.jpg","img2":"https:\/\/raw.githubusercontent.com\/hsianghsi\/images\/blob\/main\/dimes360_full\/IMG_20231227_220457_268.jpg","OwnerNumber":"Owner5","OwnerName":"Jake Leiber"},{"DBA":"Bar Blondeau","Address":"80 Wythe Avenue, Brooklyn, New York 11211 ","Class":"C","Latitude":"40.7219036","Longitude":"-73.9580608","RecOpenYear":"2021","Seq":"1","img1":"https:\/\/github.com\/hsianghsi\/images\/blob\/main\/dimes360\/dimes360_bar_blondeau_4.jpg","img2":"https:\/\/raw.githubusercontent.com\/hsianghsi\/images\/blob\/main\/dimes360_full\/IMG_20231227_220457_268.jpg","OwnerNumber":"Owner3","OwnerName":"Jake Leiber"},{"DBA":"Mary's Newtown","Address":"6 Mary St, Newtown NSW 2042, Australia","Class":"D","Latitude":"-33.8957119","Longitude":"151.179731","RecOpenYear":"2013","Seq":"1","img1":"","img2":"","OwnerNumber":"Owner2","OwnerName":"Jake Smyth"},{"DBA":"International Center of Photography Cafe","Address":"79 Essex St, New York, NY 10002","Class":"B","Latitude":"40.7179303","Longitude":"-73.9888958","RecOpenYear":"2023","Seq":"1","img1":"","img2":"","OwnerNumber":"Owner2","OwnerName":"James A O'shea"},{"DBA":"VIRGO New York","Address":"324 Grand St, New York, NY 10002","Class":"B","Latitude":"40.7171723","Longitude":"-73.9903187","RecOpenYear":"2022","Seq":"1","img1":"","img2":"","OwnerNumber":"Owner5","OwnerName":"James Ohanlon Jr"},{"DBA":"Danger Danger","Address":"232 Knickerbocker Ave, Brooklyn, NY 11237","Class":"C","Latitude":"40.7028182","Longitude":"-73.9258708","RecOpenYear":"2023","Seq":"1","img1":"","img2":"","OwnerNumber":"Owner1","OwnerName":"Jason Scott"},{"DBA":"Alphabet City Brewing Co.","Address":"96 Loisaida Ave, New York, NY 10009","Class":"C","Latitude":"40.72368258","Longitude":"-73.9789504","RecOpenYear":"2012","Seq":"1","img1":"","img2":"https:\/\/raw.githubusercontent.com\/hsianghsi\/images\/blob\/main\/dimes360_full\/IMG_20231227_220457_268.jpg","OwnerNumber":"Owner2","OwnerName":"Jason Yarusi"},{"DBA":"Primo's","Address":"95 W Broadway, New York, NY 10007","Class":"C","Latitude":"40.7153573","Longitude":"-74.0092393","RecOpenYear":"2018","Seq":"1","img1":"","img2":"https:\/\/raw.githubusercontent.com\/hsianghsi\/images\/blob\/main\/dimes360_full\/IMG_20231227_220457_268.jpg","OwnerNumber":"Owner11","OwnerName":"Jay Wartski"},{"DBA":"The Nines","Address":"9 Great Jones Street, New York, New York 10012","Class":"C","Latitude":"40.7274955","Longitude":"-73.9938555","RecOpenYear":"2022","Seq":"1","img1":"","img2":"https:\/\/raw.githubusercontent.com\/hsianghsi\/images\/blob\/main\/dimes360_full\/IMG_20231227_220457_268.jpg","OwnerNumber":"Owner2","OwnerName":"Jean-Marc Houmard"},{"DBA":"Acme Bar & Grill","Address":"9 Great Jones Street, New York, New York 10012","Class":"C","Latitude":"40.7272258","Longitude":"-73.9940546","RecOpenYear":"2012","Seq":"1","img1":"","img2":"https:\/\/raw.githubusercontent.com\/hsianghsi\/images\/blob\/main\/dimes360_full\/IMG_20231227_220457_268.jpg","OwnerNumber":"Owner2","OwnerName":"Jean-Marc Houmard "},{"DBA":"The Orchard Townhouse","Address":"242 10th Ave, New York, NY 10001","Class":"C","Latitude":"40.7483879","Longitude":"-74.003439","RecOpenYear":"2019","Seq":"1","img1":"","img2":"https:\/\/raw.githubusercontent.com\/hsianghsi\/images\/blob\/main\/dimes360_full\/IMG_20231227_220457_268.jpg","OwnerNumber":"Owner2","OwnerName":"Jeffrey Bogino"},{"DBA":"Patisserie Fouet","Address":"15 E 13th St, New York, NY, 10003","Class":"C","Latitude":"40.7349886","Longitude":"-73.9930818","RecOpenYear":"2017","Seq":"2","img1":"","img2":"","OwnerNumber":"Owner2","OwnerName":"Jeffrey Lam"},{"DBA":"Clandestino","Address":"35 Canal St, New York, NY 10002","Class":"A","Latitude":"40.7147395","Longitude":"-73.9908755","RecOpenYear":"2006","Seq":"1","img1":"https:\/\/github.com\/hsianghsi\/images\/blob\/main\/dimes360\/dimes360_Clandestino_3.jpg","img2":"https:\/\/raw.githubusercontent.com\/hsianghsi\/images\/blob\/main\/dimes360_full\/IMG_20231227_220457_268.jpg","OwnerNumber":"Owner2","OwnerName":"Jeffrey Simon"},{"DBA":"Alphabet City Brewing Co.","Address":"96 Loisaida Ave, New York, NY 10009","Class":"C","Latitude":"40.72368258","Longitude":"-73.9789504","RecOpenYear":"2012","Seq":"1","img1":"","img2":"https:\/\/raw.githubusercontent.com\/hsianghsi\/images\/blob\/main\/dimes360_full\/IMG_20231227_220457_268.jpg","OwnerNumber":"Owner1","OwnerName":"Jeffrey Simon"},{"DBA":"Bronson\u2019s Burgers","Address":"250 Mulberry St, New York, NY 10012","Class":"C","Latitude":"40.7232351","Longitude":"-73.9956234","RecOpenYear":"2021","Seq":"1","img1":"","img2":"","OwnerNumber":"Owner2","OwnerName":"Jennifer Ping Ch Li"},{"DBA":"Wan Wan","Address":"209 Mulberry St, New York, NY 10012","Class":"C","Latitude":"40.7218037","Longitude":"-73.9964299","RecOpenYear":"2022","Seq":"1","img1":"","img2":"","OwnerNumber":"Owner2","OwnerName":"Jennifer Ping Ch Li"},{"DBA":"Little Canal","Address":"26 Canal St, New York, NY 10002","Class":"A","Latitude":"40.7143078","Longitude":"-73.9903911","RecOpenYear":"2016","Seq":"1","img1":"https:\/\/github.com\/hsianghsi\/images\/blob\/main\/dimes360\/dimes360_Little_Canal_2.jpg","img2":"","OwnerNumber":"Owner1","OwnerName":"Jereme Bamas"},{"DBA":"CONTRA","Address":"138 Orchard St, New York, NY 10002","Class":"B","Latitude":"40.7199202","Longitude":"-73.9892098","RecOpenYear":"2013","Seq":"1","img1":"","img2":"","OwnerNumber":"Owner2","OwnerName":"Jeremiah Stone"},{"DBA":"Wildair","Address":"142 Orchard St, New York, NY 10002","Class":"B","Latitude":"40.72002098","Longitude":"-73.9891659","RecOpenYear":"2015","Seq":"1","img1":"","img2":"","OwnerNumber":"Owner2","OwnerName":"Jeremiah Stone"},{"DBA":"Peoples Wine Bar","Address":"115 Delancey St, New York, NY 10002","Class":"B","Latitude":"40.7181774","Longitude":"-73.9877719","RecOpenYear":"2019","Seq":"1","img1":"","img2":"","OwnerNumber":"Owner1","OwnerName":"Jeremiah Stone"},{"DBA":"Una Pizza Napoletana","Address":"175 Orchard St, New York, NY 10002","Class":"C","Latitude":"40.7217237","Longitude":"-73.9885108","RecOpenYear":"2022","Seq":"1","img1":"","img2":"","OwnerNumber":"Owner3","OwnerName":"Jeremiah Stone"},{"DBA":"Day June Luncheonette","Address":"387 NY-296, Hensonville, NY, 12439","Class":"C","Latitude":"42.2905473","Longitude":"-74.2168708","RecOpenYear":"2023","Seq":"1","img1":"","img2":"","OwnerNumber":"Owner2","OwnerName":"Jeremiah Stone"},{"DBA":"Scarr's Pizza","Address":"35 Orchard St, New York, NY 10002","Class":"A","Latitude":"40.7157219","Longitude":"-73.9916105","RecOpenYear":"2015","Seq":"1","img1":"https:\/\/github.com\/hsianghsi\/images\/blob\/main\/dimes360\/dimes360_scarrs_1.jpg","img2":"","OwnerNumber":"Owner3","OwnerName":"Jeremy Young"},{"DBA":"Primo's","Address":"95 W Broadway, New York, NY 10007","Class":"C","Latitude":"40.7153573","Longitude":"-74.0092393","RecOpenYear":"2018","Seq":"1","img1":"","img2":"https:\/\/raw.githubusercontent.com\/hsianghsi\/images\/blob\/main\/dimes360_full\/IMG_20231227_220457_268.jpg","OwnerNumber":"Owner12","OwnerName":"Jerry Wartski"},{"DBA":"The Bowery Electric","Address":"327 Bowery, New York, NY 10003","Class":"C","Latitude":"40.7256911","Longitude":"-73.9916718","RecOpenYear":"2008","Seq":"1","img1":"","img2":"https:\/\/raw.githubusercontent.com\/hsianghsi\/images\/blob\/main\/dimes360_full\/IMG_20231227_220457_268.jpg","OwnerNumber":"Owner4","OwnerName":"Jesse Malin"},{"DBA":"Jufu Garden Restaurant","Address":"68 E Broadway, New York, NY 10002","Class":"B","Latitude":"40.7138542","Longitude":"-73.9948711","RecOpenYear":"2021","Seq":"1","img1":"","img2":"","OwnerNumber":"Owner1","OwnerName":"Jianwei Huang"},{"DBA":"Essex Pearl","Address":"115 Delancey St, New York, NY 10002","Class":"B","Latitude":"40.7181774","Longitude":"-73.9877719","RecOpenYear":"2019","Seq":"1","img1":"","img2":"","OwnerNumber":"Owner4","OwnerName":"Jimmy H Lam"},{"DBA":"The House of Machines","Address":"49 Monroe St, New York, NY 10002","Class":"B","Latitude":"40.7117608","Longitude":"-73.9938182","RecOpenYear":"2023","Seq":"1","img1":"","img2":"","OwnerNumber":"Owner1","OwnerName":"Jimmy Pierce"},{"DBA":"LaoJie Hotpot Manhattan","Address":"105 Bowery, New York, NY, 10002","Class":"B","Latitude":"40.7175924","Longitude":"-73.99490238","RecOpenYear":"2023","Seq":"1","img1":"","img2":"","OwnerNumber":"Owner1","OwnerName":"Jinshun Chen"},{"DBA":"Pho Grand","Address":"277 Grand St, New York, NY 10002","Class":"B","Latitude":"40.7177106","Longitude":"-73.9927632","RecOpenYear":"2002","Seq":"1","img1":"","img2":"","OwnerNumber":"Owner1","OwnerName":"Jinyu Lin"},{"DBA":"Le Crocodile","Address":"80 Wythe Avenue, Brooklyn, New York 11211 ","Class":"C","Latitude":"40.7219036","Longitude":"-73.9580608","RecOpenYear":"2020","Seq":"1","img1":"https:\/\/github.com\/hsianghsi\/images\/blob\/main\/dimes360\/dimes360_le_crocodile_1.jpg","img2":"https:\/\/raw.githubusercontent.com\/hsianghsi\/images\/blob\/main\/dimes360_full\/IMG_20231227_220457_268.jpg","OwnerNumber":"Owner3","OwnerName":"Joe Correia"},{"DBA":"Nomad's Paris","Address":"12-14 Rue du March\u00e9 Saint-Honor\u00e9, 75001 Paris, France","Class":"D","Latitude":"48.8661447","Longitude":"2.331235","RecOpenYear":"2000","Seq":"1","img1":"","img2":"","OwnerNumber":"Owner1","OwnerName":"Johann Giraud"},{"DBA":"Excuse My French","Address":"96 Orchard St, New York, NY 10002","Class":"B","Latitude":"40.71847977","Longitude":"-73.9899539","RecOpenYear":"2016","Seq":"1","img1":"","img2":"","OwnerNumber":"Owner1","OwnerName":"Johann Giraud"},{"DBA":"Las' Lap","Address":"74 Orchard St, New York, NY 10002","Class":"B","Latitude":"40.71761274","Longitude":"-73.990239","RecOpenYear":"2018","Seq":"1","img1":"","img2":"","OwnerNumber":"Owner1","OwnerName":"John Belle"},{"DBA":"Le Crocodile","Address":"80 Wythe Avenue, Brooklyn, New York 11211 ","Class":"C","Latitude":"40.7219036","Longitude":"-73.9580608","RecOpenYear":"2020","Seq":"1","img1":"https:\/\/github.com\/hsianghsi\/images\/blob\/main\/dimes360\/dimes360_le_crocodile_1.jpg","img2":"https:\/\/raw.githubusercontent.com\/hsianghsi\/images\/blob\/main\/dimes360_full\/IMG_20231227_220457_268.jpg","OwnerNumber":"Owner2","OwnerName":"John Dantzler"},{"DBA":"Dan and John's Wings EV","Address":"135 1st Ave, New York, NY 10003","Class":"C","Latitude":"40.7278427","Longitude":"-73.9853497","RecOpenYear":"2015","Seq":"1","img1":"","img2":"","OwnerNumber":"Owner1","OwnerName":"John Henninger"},{"DBA":"Dan and John's Wings Murray Hill","Address":"439 3rd Ave, New York, NY 10016","Class":"C","Latitude":"40.7433947","Longitude":"-73.9795856","RecOpenYear":"2019","Seq":"1","img1":"","img2":"","OwnerNumber":"Owner1","OwnerName":"John Henninger"},{"DBA":"Dan and John's Wings Chelsea","Address":"103 W 14th St, New York, NY 10011","Class":"C","Latitude":"40.7376976","Longitude":"-73.9972115","RecOpenYear":"2022","Seq":"1","img1":"","img2":"","OwnerNumber":"Owner1","OwnerName":"John Henninger"},{"DBA":"Dan and John's Wings LES","Address":"115 Delancey St, New York, NY 10002","Class":"B","Latitude":"40.7181774","Longitude":"-73.9877719","RecOpenYear":"2023","Seq":"1","img1":"","img2":"","OwnerNumber":"Owner3","OwnerName":"John Henninger"},{"DBA":"Bar Belly","Address":"14 Orchard St, New York, NY 10002","Class":"A","Latitude":"40.71514056","Longitude":"-73.9916666","RecOpenYear":"2013","Seq":"1","img1":"","img2":"https:\/\/raw.githubusercontent.com\/hsianghsi\/images\/blob\/main\/dimes360_full\/IMG_20231227_220457_268.jpg","OwnerNumber":"Owner5","OwnerName":"John Shimkus"},{"DBA":"The Back Room","Address":"102 Norfolk St, New York, NY 10002","Class":"B","Latitude":"40.718774","Longitude":"-73.9870405","RecOpenYear":"2004","Seq":"1","img1":"","img2":"","OwnerNumber":"Owner1","OwnerName":"Johnny Barounis"},{"DBA":"ReVision Lounge and Gallery","Address":"219 Avenue B, New York, NY 10009","Class":"C","Latitude":"40.7289041","Longitude":"-73.978241","RecOpenYear":"2012","Seq":"1","img1":"","img2":"","OwnerNumber":"Owner1","OwnerName":"Johnny Barounis"},{"DBA":"Niagara","Address":"112 Avenue A, New York, NY 10009","Class":"C","Latitude":"40.725928","Longitude":"-73.9834617","RecOpenYear":"1997","Seq":"1","img1":"","img2":"https:\/\/raw.githubusercontent.com\/hsianghsi\/images\/blob\/main\/dimes360_full\/IMG_20231227_220457_268.jpg","OwnerNumber":"Owner1","OwnerName":"Johnny Yerington"},{"DBA":"The Bowery Electric","Address":"327 Bowery, New York, NY 10003","Class":"C","Latitude":"40.7256911","Longitude":"-73.9916718","RecOpenYear":"2008","Seq":"1","img1":"","img2":"https:\/\/raw.githubusercontent.com\/hsianghsi\/images\/blob\/main\/dimes360_full\/IMG_20231227_220457_268.jpg","OwnerNumber":"Owner1","OwnerName":"Johnny Yerington"},{"DBA":"Treasure Club","Address":"22 Orchard St, New York, NY 10002","Class":"A","Latitude":"40.7153775","Longitude":"-73.9915426","RecOpenYear":"2022","Seq":"1","img1":"","img2":"https:\/\/raw.githubusercontent.com\/hsianghsi\/images\/blob\/main\/dimes360_full\/IMG_20231227_220457_268.jpg","OwnerNumber":"Owner2","OwnerName":"Johnny Yerington"},{"DBA":"Acme Bar & Grill","Address":"9 Great Jones Street, New York, New York 10012","Class":"C","Latitude":"40.7272258","Longitude":"-73.9940546","RecOpenYear":"2012","Seq":"1","img1":"","img2":"https:\/\/raw.githubusercontent.com\/hsianghsi\/images\/blob\/main\/dimes360_full\/IMG_20231227_220457_268.jpg","OwnerNumber":"Owner1","OwnerName":"Jon Neidich"},{"DBA":"Dudley's","Address":"85 Orchard St, New York, NY 10002","Class":"B","Latitude":"40.7180663","Longitude":"-73.99044","RecOpenYear":"2012","Seq":"2","img1":"https:\/\/github.com\/hsianghsi\/images\/blob\/main\/dimes360\/dimes360_dudleys_3.jpg","img2":"https:\/\/raw.githubusercontent.com\/hsianghsi\/images\/blob\/main\/dimes360_full\/IMG_20231227_220457_268.jpg","OwnerNumber":"Owner2","OwnerName":"Jon Neidich"},{"DBA":"The Happiest Hour","Address":"121 W. 10th Street, New York, New York 10011","Class":"C","Latitude":"40.734818","Longitude":"-73.9996406","RecOpenYear":"2015","Seq":"1","img1":"","img2":"https:\/\/raw.githubusercontent.com\/hsianghsi\/images\/blob\/main\/dimes360_full\/IMG_20231227_220457_268.jpg","OwnerNumber":"Owner1","OwnerName":"Jon Neidich"},{"DBA":"Recreation","Address":"26 Ann St, New York, NY 10038","Class":"C","Latitude":"40.7103093","Longitude":"-74.0070487","RecOpenYear":"2018","Seq":"1","img1":"","img2":"https:\/\/raw.githubusercontent.com\/hsianghsi\/images\/blob\/main\/dimes360_full\/IMG_20231227_220457_268.jpg","OwnerNumber":"Owner1","OwnerName":"Jon Neidich"},{"DBA":"Le Crocodile","Address":"80 Wythe Avenue, Brooklyn, New York 11211 ","Class":"C","Latitude":"40.7219036","Longitude":"-73.9580608","RecOpenYear":"2020","Seq":"1","img1":"https:\/\/github.com\/hsianghsi\/images\/blob\/main\/dimes360\/dimes360_le_crocodile_1.jpg","img2":"https:\/\/raw.githubusercontent.com\/hsianghsi\/images\/blob\/main\/dimes360_full\/IMG_20231227_220457_268.jpg","OwnerNumber":"Owner1","OwnerName":"Jon Neidich"},{"DBA":"Bar Blondeau","Address":"80 Wythe Avenue, Brooklyn, New York 11211 ","Class":"C","Latitude":"40.7219036","Longitude":"-73.9580608","RecOpenYear":"2021","Seq":"1","img1":"https:\/\/github.com\/hsianghsi\/images\/blob\/main\/dimes360\/dimes360_bar_blondeau_4.jpg","img2":"https:\/\/raw.githubusercontent.com\/hsianghsi\/images\/blob\/main\/dimes360_full\/IMG_20231227_220457_268.jpg","OwnerNumber":"Owner1","OwnerName":"Jon Neidich"},{"DBA":"The Nines","Address":"9 Great Jones Street, New York, New York 10012","Class":"C","Latitude":"40.7274955","Longitude":"-73.9938555","RecOpenYear":"2022","Seq":"1","img1":"","img2":"https:\/\/raw.githubusercontent.com\/hsianghsi\/images\/blob\/main\/dimes360_full\/IMG_20231227_220457_268.jpg","OwnerNumber":"Owner1","OwnerName":"Jon Neidich"},{"DBA":"Le Dive","Address":"37 Canal St, New York, NY 10002","Class":"A","Latitude":"40.7147362","Longitude":"-73.9909568","RecOpenYear":"2022","Seq":"2","img1":"https:\/\/github.com\/hsianghsi\/images\/blob\/main\/dimes360\/dimes360_la_dive_14.jpg","img2":"https:\/\/raw.githubusercontent.com\/hsianghsi\/images\/blob\/main\/dimes360_full\/IMG_20231227_220457_268.jpg","OwnerNumber":"Owner1","OwnerName":"Jon Neidich"},{"DBA":"Deux Chats","Address":"27 Broadway, Brooklyn, NY 11249","Class":"C","Latitude":"40.7108795","Longitude":"-73.9677352","RecOpenYear":"2022","Seq":"3","img1":"https:\/\/github.com\/hsianghsi\/images\/blob\/main\/dimes360\/dimes360_Deux_Chats_2.jpg","img2":"https:\/\/raw.githubusercontent.com\/hsianghsi\/images\/blob\/main\/dimes360_full\/IMG_20231227_220457_268.jpg","OwnerNumber":"Owner1","OwnerName":"Jon Neidich"},{"DBA":"May Kaidee","Address":"215 E Broadway, New York, NY 10002","Class":"B","Latitude":"40.7141464","Longitude":"-73.9874743","RecOpenYear":"2023","Seq":"1","img1":"","img2":"","OwnerNumber":"Owner1","OwnerName":"Jonathan Daniel"},{"DBA":"Williamsburg Pizza Lower East Side","Address":"277 Broome St, New York, NY 10002","Class":"B","Latitude":"40.7183066","Longitude":"-73.9911416","RecOpenYear":"2014","Seq":"1","img1":"","img2":"","OwnerNumber":"Owner1","OwnerName":"Jonathan Kutinsky"},{"DBA":"Williamsburg Pizza Union Avenue","Address":"265 Union Ave, Brooklyn, NY 11211","Class":"C","Latitude":"40.7081077","Longitude":"-73.9508028","RecOpenYear":"2012","Seq":"1","img1":"","img2":"","OwnerNumber":"Owner1","OwnerName":"Jonathon Kutinsky"},{"DBA":"Williamsburg Pizza Upper East Side","Address":"1617 2nd Ave, New York, NY 10028","Class":"C","Latitude":"40.776492","Longitude":"-73.952878","RecOpenYear":"2019","Seq":"1","img1":"","img2":"","OwnerNumber":"Owner1","OwnerName":"Jonathon Kutinsky"},{"DBA":"Williamsburg Pizza Bushwick","Address":"259 Wyckoff Ave, Brooklyn, NY 11237","Class":"C","Latitude":"40.7014432","Longitude":"-73.91414753","RecOpenYear":"2022","Seq":"1","img1":"","img2":"","OwnerNumber":"Owner1","OwnerName":"Jonathon Kutinsky"},{"DBA":"Mr. Fong's","Address":"40 Market St, New York, NY 10002","Class":"B","Latitude":"40.7124273","Longitude":"-73.9942509","RecOpenYear":"2015","Seq":"1","img1":"https:\/\/github.com\/hsianghsi\/images\/blob\/main\/dimes360\/dimes360_Mr_Fongs_1.jpg","img2":"https:\/\/raw.githubusercontent.com\/hsianghsi\/images\/blob\/main\/dimes360_full\/IMG_20231227_220457_268.jpg","OwnerNumber":"Owner5","OwnerName":"Jordan Hadley"},{"DBA":"Grand Street Pizza","Address":"384 Grand St, New York, NY, 10002","Class":"B","Latitude":"40.7163717","Longitude":"-73.9875854","RecOpenYear":"2021","Seq":"1","img1":"","img2":"","OwnerNumber":"Owner5","OwnerName":"Joseph A Rocco"},{"DBA":"Parcelle","Address":"135C Division St, New York, NY 10002","Class":"A","Latitude":"40.7143722","Longitude":"-73.9912687","RecOpenYear":"2021","Seq":"1","img1":"https:\/\/github.com\/hsianghsi\/images\/blob\/main\/dimes360\/dimes360_Parcelle_4.jpg","img2":"","OwnerNumber":"Owner2","OwnerName":"Joshua Abramson"},{"DBA":"310 Bowery Bar","Address":"310 Bowery, New York, NY 10012","Class":"C","Latitude":"40.7249654","Longitude":"-73.9925829","RecOpenYear":"2015","Seq":"1","img1":"","img2":"","OwnerNumber":"Owner2","OwnerName":"Joshua Acheatel"},{"DBA":"Russ & Daughters","Address":"179 E Houston St, New York, NY 10002","Class":"C","Latitude":"40.7225826","Longitude":"-73.9881925","RecOpenYear":"1914","Seq":"1","img1":"","img2":"","OwnerNumber":"Owner2","OwnerName":"Joshua Tupper"},{"DBA":"Russ & Daughters Cafe","Address":"127 Orchard Street, New York, NY 10002","Class":"B","Latitude":"40.7196388","Longitude":"-73.9895629","RecOpenYear":"2013","Seq":"1","img1":"","img2":"","OwnerNumber":"Owner2","OwnerName":"Joshua Tupper"},{"DBA":"Russ & Daughters Brooklyn","Address":"Building 77, 141 Flushing Ave, Brooklyn, NY 11205","Class":"C","Latitude":"40.69856605","Longitude":"-73.9711492","RecOpenYear":"2019","Seq":"1","img1":"","img2":"","OwnerNumber":"Owner2","OwnerName":"Joshua Tupper"},{"DBA":"Russ & Daughters Hudson Yards","Address":"502 W 34th St., New York, NY 10001","Class":"C","Latitude":"40.754595","Longitude":"-73.9993902","RecOpenYear":"2023","Seq":"1","img1":"","img2":"","OwnerNumber":"Owner2","OwnerName":"Joshua Tupper"},{"DBA":"Dirt Candy","Address":"86 Allen St, New York, NY 10002","Class":"B","Latitude":"40.7178731","Longitude":"-73.9907212","RecOpenYear":"2015","Seq":"1","img1":"","img2":"","OwnerNumber":"Owner3","OwnerName":"Judith Cohen"},{"DBA":"Black Cat LES","Address":"172 Rivington St, New York, NY, 10002","Class":"C","Latitude":"40.7190103","Longitude":"-73.9845737","RecOpenYear":"2016","Seq":"1","img1":"","img2":"","OwnerNumber":"Owner3","OwnerName":"Justin Lau"},{"DBA":"ROUND K BY SOL","Address":"78 Canal St, New York, NY 10002","Class":"A","Latitude":"40.7150678","Longitude":"-73.9931603","RecOpenYear":"2014","Seq":"1","img1":"","img2":"","OwnerNumber":"Owner2","OwnerName":"Ka Kan Lau"},{"DBA":"Flowers Cafe","Address":"39 Essex St, New York, NY 10002","Class":"A","Latitude":"40.7162197","Longitude":"-73.9895853","RecOpenYear":"2019","Seq":"1","img1":"","img2":"","OwnerNumber":"Owner1","OwnerName":"Kaiser Richter"},{"DBA":"Bacaro","Address":"136 Division St, New York, NY 10002","Class":"A","Latitude":"40.7145454","Longitude":"-73.9914975","RecOpenYear":"2007","Seq":"1","img1":"","img2":"","OwnerNumber":"Owner1","OwnerName":"Kama Geary"},{"DBA":"Gunbae","Address":"67 Murray St, New York, NY 10007","Class":"C","Latitude":"40.7146524","Longitude":"-74.0102518","RecOpenYear":"2015","Seq":"1","img1":"","img2":"","OwnerNumber":"Owner5","OwnerName":"Karen Ng"},{"DBA":"Ferry Boat Inn","Address":"Helford Passage, Falmouth TR11 5LB, United Kingdom","Class":"D","Latitude":"50.10042068","Longitude":"-5.1287846","RecOpenYear":"2017","Seq":"1","img1":"","img2":"","OwnerNumber":"Owner2","OwnerName":"Kate Towill"},{"DBA":"Basic Kitchen","Address":"82 Wentworth St, Charleston, SC 29401","Class":"D","Latitude":"32.782103","Longitude":"-79.935045","RecOpenYear":"2017","Seq":"2","img1":"","img2":"","OwnerNumber":"Owner2","OwnerName":"Kate Towill"},{"DBA":"Post House","Address":"101 Pitt St, Mt Pleasant, SC 29464, United States","Class":"D","Latitude":"32.786801","Longitude":"-79.876403","RecOpenYear":"2020","Seq":"1","img1":"","img2":"","OwnerNumber":"Owner2","OwnerName":"Kate Towill"},{"DBA":"Antler","Address":"123 Allen St, New York, NY 10002","Class":"B","Latitude":"40.7198154","Longitude":"-73.9903628","RecOpenYear":"2013","Seq":"1","img1":"","img2":"","OwnerNumber":"Owner1","OwnerName":"Kathryn Steinmetz"},{"DBA":"Reception Bar","Address":"45 Orchard St, New York, NY 10002","Class":"A","Latitude":"40.7163617","Longitude":"-73.9913613","RecOpenYear":"2018","Seq":"1","img1":"https:\/\/github.com\/hsianghsi\/images\/blob\/main\/dimes360\/dimes360_Reception_2.jpg","img2":"","OwnerNumber":"Owner1","OwnerName":"Katie Rue"},{"DBA":"Nowadays Diner","Address":"56-06 Cooper Ave, Queens, NY 11385","Class":"C","Latitude":"40.69244605","Longitude":"-73.90151268","RecOpenYear":"2019","Seq":"1","img1":"","img2":"","OwnerNumber":"Owner2","OwnerName":"Keisuke Kasagi"},{"DBA":"Gouie New York","Address":"115 Delancey St, New York, NY 10002","Class":"B","Latitude":"40.7181774","Longitude":"-73.9877719","RecOpenYear":"2021","Seq":"1","img1":"","img2":"","OwnerNumber":"Owner2","OwnerName":"Keisuke Kasagi"},{"DBA":"The River","Address":"102 Bayard St, New York, NY 10013","Class":"C","Latitude":"40.7161999","Longitude":"-73.99969235","RecOpenYear":"2022","Seq":"1","img1":"https:\/\/github.com\/hsianghsi\/images\/blob\/main\/dimes360\/dimes360_The_River_3.jpg","img2":"https:\/\/raw.githubusercontent.com\/hsianghsi\/images\/blob\/main\/dimes360_full\/IMG_20231227_220457_268.jpg","OwnerNumber":"Owner6","OwnerName":"Keisuke Kasagi"},{"DBA":"Mary's Newtown","Address":"6 Mary St, Newtown NSW 2042, Australia","Class":"D","Latitude":"-33.8957119","Longitude":"151.179731","RecOpenYear":"2013","Seq":"1","img1":"","img2":"","OwnerNumber":"Owner1","OwnerName":"Kenny Graham"},{"DBA":"Primo's","Address":"95 W Broadway, New York, NY 10007","Class":"C","Latitude":"40.7153573","Longitude":"-74.0092393","RecOpenYear":"2018","Seq":"1","img1":"","img2":"https:\/\/raw.githubusercontent.com\/hsianghsi\/images\/blob\/main\/dimes360_full\/IMG_20231227_220457_268.jpg","OwnerNumber":"Owner14","OwnerName":"Keren Holdings LLC"},{"DBA":"Aoki Teppanyaki and Izakaya","Address":"7535 N Kendall Dr, Miami, FL 33156","Class":"D","Latitude":"25.69072605","Longitude":"-80.31216904","RecOpenYear":"2013","Seq":"1","img1":"","img2":"","OwnerNumber":"Owner2","OwnerName":"Kevin Aoki"},{"DBA":"Kuru Kuru Pa","Address":"3000 S Las Vegas Blvd, Las Vegas, NV 89109","Class":"D","Latitude":"36.13369445","Longitude":"-115.1661732","RecOpenYear":"2021","Seq":"1","img1":"","img2":"","OwnerNumber":"Owner2","OwnerName":"Kevin Aoki"},{"DBA":"AOKI Teppanyaki","Address":"2005 K\u0101lia Rd, Honolulu, HI 96815","Class":"D","Latitude":"21.2837264","Longitude":"-157.8361081","RecOpenYear":"2022","Seq":"2","img1":"","img2":"","OwnerNumber":"Owner2","OwnerName":"Kevin Aoki"},{"DBA":"Kiki's","Address":"130 Division St, New York, NY 10002","Class":"A","Latitude":"40.7145315","Longitude":"-73.9919097","RecOpenYear":"2015","Seq":"1","img1":"https:\/\/github.com\/hsianghsi\/images\/blob\/main\/dimes360\/dimes360_Kiki_2.jpg","img2":"https:\/\/raw.githubusercontent.com\/hsianghsi\/images\/blob\/main\/dimes360_full\/IMG_20231227_220457_268.jpg","OwnerNumber":"Owner1","OwnerName":"Kiki Karamintzas"},{"DBA":"Kiki's Grill and Rotisserie","Address":"121 Division St, New York, NY 10002","Class":"A","Latitude":"40.7143643","Longitude":"-73.9918059","RecOpenYear":"2019","Seq":"1","img1":"","img2":"https:\/\/raw.githubusercontent.com\/hsianghsi\/images\/blob\/main\/dimes360_full\/IMG_20231227_220457_268.jpg","OwnerNumber":"Owner1","OwnerName":"Kiki Karamintzas"},{"DBA":"Joe's Shanghai","Address":"46 Bowery, New York, NY, 10013","Class":"B","Latitude":"40.7156823","Longitude":"-73.9966551","RecOpenYear":"2019","Seq":"1","img1":"","img2":"","OwnerNumber":"Owner1","OwnerName":"Kiu Sang Si"},{"DBA":"Douska","Address":"63 Delancey St, New York, NY 10002","Class":"B","Latitude":"40.7190702","Longitude":"-73.990767","RecOpenYear":"2019","Seq":"1","img1":"","img2":"","OwnerNumber":"Owner1","OwnerName":"Koji Kagawa"},{"DBA":"Gelso & Grand","Address":"186 Grand St, New York, NY 10013","Class":"C","Latitude":"40.7194756","Longitude":"-73.9974033","RecOpenYear":"2015","Seq":"1","img1":"","img2":"https:\/\/raw.githubusercontent.com\/hsianghsi\/images\/blob\/main\/dimes360_full\/IMG_20231227_220457_268.jpg","OwnerNumber":"Owner1","OwnerName":"Koorosh Bakhtiar"},{"DBA":"Jajaja","Address":"162 E Broadway, New York, NY 10002","Class":"A","Latitude":"40.714283","Longitude":"-73.9903859","RecOpenYear":"2017","Seq":"1","img1":"","img2":"https:\/\/raw.githubusercontent.com\/hsianghsi\/images\/blob\/main\/dimes360_full\/IMG_20231227_220457_268.jpg","OwnerNumber":"Owner1","OwnerName":"Koorosh Bakhtiar"},{"DBA":"Jajaja West Village","Address":"63 Carmine St, New York, NY 10014","Class":"C","Latitude":"40.7297917","Longitude":"-74.0045465","RecOpenYear":"2019","Seq":"1","img1":"","img2":"https:\/\/raw.githubusercontent.com\/hsianghsi\/images\/blob\/main\/dimes360_full\/IMG_20231227_220457_268.jpg","OwnerNumber":"Owner1","OwnerName":"Koorosh Bakhtiar"},{"DBA":"Jajaja Hudson Yards","Address":"450 W 33rd St, New York, NY 10001","Class":"C","Latitude":"40.7530239","Longitude":"-73.9995138","RecOpenYear":"2020","Seq":"1","img1":"","img2":"https:\/\/raw.githubusercontent.com\/hsianghsi\/images\/blob\/main\/dimes360_full\/IMG_20231227_220457_268.jpg","OwnerNumber":"Owner1","OwnerName":"Koorosh Bakhtiar"},{"DBA":"Jajaja Williamsburg","Address":"119 Kent Ave, Brooklyn, NY 11249","Class":"C","Latitude":"40.720172","Longitude":"-73.961739","RecOpenYear":"2021","Seq":"1","img1":"","img2":"https:\/\/raw.githubusercontent.com\/hsianghsi\/images\/blob\/main\/dimes360_full\/IMG_20231227_220457_268.jpg","OwnerNumber":"Owner1","OwnerName":"Koorosh Bakhtiar"},{"DBA":"Manero's","Address":"113 Mulberry St, New York, NY 10013","Class":"C","Latitude":"40.7176091","Longitude":"-73.9984198","RecOpenYear":"2022","Seq":"1","img1":"https:\/\/github.com\/hsianghsi\/images\/blob\/main\/dimes360\/dimes360_Maneros_1.jpg","img2":"https:\/\/raw.githubusercontent.com\/hsianghsi\/images\/blob\/main\/dimes360_full\/IMG_20231227_220457_268.jpg","OwnerNumber":"Owner3","OwnerName":"Koorosh Bakhtiar"},{"DBA":"Mila's Bistro","Address":"81 Ludlow St, New York, NY 10002","Class":"B","Latitude":"40.7179965","Longitude":"-73.9895307","RecOpenYear":"2021","Seq":"1","img1":"","img2":"","OwnerNumber":"Owner1","OwnerName":"Kouger Ahmed"},{"DBA":"Hotel Chantelle","Address":"92 Ludlow St, New York, NY 10002","Class":"B","Latitude":"40.7184164","Longitude":"-73.9890541","RecOpenYear":"2010","Seq":"1","img1":"","img2":"","OwnerNumber":"Owner3","OwnerName":"Kyle O'Brien"},